{
"type": "FeatureCollection",
"name": "downtown_places",
"features": [
{ "type": "Feature", "properties": { "id": "08f44c1aaa50909903c690ebcbe95714", "name": "Angie cleaning ", "confidence": 0.30856423173803527, "socials": [ "https://www.facebook.com/112694678553331" ] }, "geometry": { "type": "Point", "coordinates": [ -84.40395, 33.74117 ] } },
{ "type": "Feature", "properties": { "id": "08f44c1aaa50b812036b08f6ac8f933a", "name": "Breadwinner", "confidence": 0.4907481898632341, "socials": [ "https://www.facebook.com/650413085165247" ] }, "geometry": { "type": "Point", "coordinates": [ -84.4036102, 33.7410987 ] } },
{ "type": "Feature", "properties": { "id": "08f44c1aaa50b6850388dd3d3b527871", "name": "Monarchy", "confidence": 0.77, "socials": null }, "geometry": { "type": "Point", "coordinates": [ -84.4033764, 33.7413884 ] } },
{ "type": "Feature", "properties": { "id": "08f44c1aaa50bc9b0368e04fc8700e94", "name": "Columbia Senior Residences at Mechanicsville", "confidence": 0.99018470102049427, "socials": [ "https://www.facebook.com/101225514621461" ] }, "geometry": { "type": "Point", "coordinates": [ -84.4031129, 33.7412418 ] } },
{ "type": "Feature", "properties": { "id": "08f44c1aaa42692403db53b85f5b57c9", "name": "Pleasant Hill Church", "confidence": 0.27546777546777546, "socials": [ "https://www.facebook.com/131197233591188" ] }, "geometry": { "type": "Point", "coordinates": [ -84.4027051, 33.7412179 ] } },
{ "type": "Feature", "properties": { "id": "08f44c1aaa422b1a03da96ee1b6669c6", "name": "All The love", "confidence": 0.27546777546777546, "socials": [ "https://www.facebook.com/2726757197350401" ] }, "geometry": { "type": "Point", "coordinates": [ -84.402634, 33.7418598 ] } },
{ "type": "Feature", "properties": { "id": "08f44c1aaa422a810332b68a0dc3d440", "name": "@Home Just Thinking!!!", "confidence": 0.26517967781908303, "socials": [ "https://www.facebook.com/130644957032656" ] }, "geometry": { "type": "Point", "coordinates": [ -84.4025756, 33.7419213 ] } },
{ "type": "Feature", "properties": { "id": "08f44c1aaa4704c903436d866a1c00b4", "name": "Hidden Treasures", "confidence": 0.99018470102049427, "socials": [ "https://www.facebook.com/224713914394557" ] }, "geometry": { "type": "Point", "coordinates": [ -84.4039159, 33.7439448 ] } },
{ "type": "Feature", "properties": { "id": "08f44c1aaa472a1b0329aed9671a99a1", "name": "The Wing Shack ATL (Whitehall)", "confidence": 0.77, "socials": null }, "geometry": { "type": "Point", "coordinates": [ -84.403847, 33.744098 ] } },
{ "type": "Feature", "properties": { "id": "08f44c1aaa4292d903f9f99c50923841", "name": "SWATS", "confidence": 0.57396449704142016, "socials": [ "https://www.facebook.com/2235099143370170" ] }, "geometry": { "type": "Point", "coordinates": [ -84.4040599, 33.744415 ] } },
{ "type": "Feature", "properties": { "id": "08f44c1aaa42b6ae03805f6cdacd892d", "name": "Wings R Us", "confidence": 0.77, "socials": null }, "geometry": { "type": "Point", "coordinates": [ -84.4032924, 33.7434542 ] } },
{ "type": "Feature", "properties": { "id": "08f44c1aaa47659a03d138e5c37962ea", "name": "Shell", "confidence": 0.77, "socials": null }, "geometry": { "type": "Point", "coordinates": [ -84.4035293, 33.7435793 ] } },
{ "type": "Feature", "properties": { "id": "08f44c1aaa73256e03cb7022fc221df7", "name": "Bitcoin of America ATM", "confidence": 0.95890559100248729, "socials": [ "https://www.facebook.com/104175368751945" ] }, "geometry": { "type": "Point", "coordinates": [ -84.4035347, 33.7436653 ] } },
{ "type": "Feature", "properties": { "id": "08f44c1aaa47679d03f8d89113bedbe7", "name": "Circle K", "confidence": 0.77, "socials": null }, "geometry": { "type": "Point", "coordinates": [ -84.4034748, 33.7435065 ] } },
{ "type": "Feature", "properties": { "id": "08f44c1aaa42b2d003b5d334940a86c3", "name": "Athena Bitcoin ATM", "confidence": 0.77, "socials": null }, "geometry": { "type": "Point", "coordinates": [ -84.4034748, 33.7435065 ] } },
{ "type": "Feature", "properties": { "id": "08f44c1aaa42b66c03120414c6ed3ba5", "name": "Chevron Station Atlanta", "confidence": 0.77, "socials": null }, "geometry": { "type": "Point", "coordinates": [ -84.4034099, 33.743477 ] } },
{ "type": "Feature", "properties": { "id": "08f44c1aaa40e992039a894816cdc2b0", "name": "Decatur Ga", "confidence": 0.26517967781908303, "socials": [ "https://www.facebook.com/174882365972848" ] }, "geometry": { "type": "Point", "coordinates": [ -84.4024692, 33.7433228 ] } },
{ "type": "Feature", "properties": { "id": "08f44c1aaa472aa5039964cce9da8f97", "name": "KISS ULTRA Lounge", "confidence": 0.55927835051546393, "socials": [ "https://www.facebook.com/148836526033921" ] }, "geometry": { "type": "Point", "coordinates": [ -84.4038239, 33.7440608 ] } },
{ "type": "Feature", "properties": { "id": "08f44c1aaa4081460394604cd7d776ef", "name": "New Beginnings Church of Atlanta", "confidence": 0.95432043204320427, "socials": [ "https://www.facebook.com/221745958182108" ] }, "geometry": { "type": "Point", "coordinates": [ -84.4029424, 33.7438689 ] } },
{ "type": "Feature", "properties": { "id": "08f44c1aaa43606803c5db107f043f92", "name": "Dunbar Elementary School", "confidence": 0.95890559100248729, "socials": [ "https://www.facebook.com/820586951309501" ] }, "geometry": { "type": "Point", "coordinates": [ -84.4013134, 33.7415306 ] } },
{ "type": "Feature", "properties": { "id": "08f44c1aaa58e71203b66d8399ecd5e3", "name": "HIV Intervention Project (HIPAtlanta)", "confidence": 0.94807692307692304, "socials": [ "https://www.facebook.com/349260578447642" ] }, "geometry": { "type": "Point", "coordinates": [ -84.3997605, 33.7413045 ] } },
{ "type": "Feature", "properties": { "id": "08f44c1aaa59d933039fa66c0547c9b0", "name": "Dunbar Recreation Center", "confidence": 0.55927835051546393, "socials": [ "https://www.facebook.com/139318519443651" ] }, "geometry": { "type": "Point", "coordinates": [ -84.399621, 33.741222 ] } },
{ "type": "Feature", "properties": { "id": "08f44c1aaa58ecd2038adacfdbdfbb64", "name": "The Center For Black Women's Wellness", "confidence": 0.94568690095846641, "socials": [ "https://www.facebook.com/80751559181" ] }, "geometry": { "type": "Point", "coordinates": [ -84.3994649, 33.741129 ] } },
{ "type": "Feature", "properties": { "id": "08f44c1aaa58e68003283738cf503eea", "name": "Barred Business Foundation", "confidence": 0.95374086990853457, "socials": [ "https://www.facebook.com/102683479073296" ] }, "geometry": { "type": "Point", "coordinates": [ -84.399713, 33.7413772 ] } },
{ "type": "Feature", "properties": { "id": "08f44c1aaa58e68403abbc12779a4688", "name": "HIP Digital Printing & Logistic Services", "confidence": 0.95445655210952784, "socials": [ "https://www.facebook.com/104831927606344" ] }, "geometry": { "type": "Point", "coordinates": [ -84.3994488, 33.7413524 ] } },
{ "type": "Feature", "properties": { "id": "08f44c1aaa59d075037307f28562babc", "name": "Habesha Gardens", "confidence": 0.95374086990853457, "socials": [ "https://www.facebook.com/610917298984510" ] }, "geometry": { "type": "Point", "coordinates": [ -84.3994492, 33.7413546 ] } },
{ "type": "Feature", "properties": { "id": "08f44c1aaa59d34c03ae232666a5cd1c", "name": "Kobay Delaney Clarissa Bancroft", "confidence": 0.24594992636229751, "socials": [ "https://www.facebook.com/100695752830618" ] }, "geometry": { "type": "Point", "coordinates": [ -84.3995655, 33.7414808 ] } },
{ "type": "Feature", "properties": { "id": "08f44c1aaa59ad630317f00dd6c2a0ca", "name": "Excavator 2G", "confidence": 0.27546777546777546, "socials": [ "https://www.facebook.com/117371848046927" ] }, "geometry": { "type": "Point", "coordinates": [ -84.39841, 33.7413587 ] } },
{ "type": "Feature", "properties": { "id": "08f44c1aaa58a68c03298d6f68a55546", "name": "HABESHA, Inc.", "confidence": 0.55927835051546393, "socials": [ "https://www.facebook.com/86474118886" ] }, "geometry": { "type": "Point", "coordinates": [ -84.398769, 33.741466 ] } },
{ "type": "Feature", "properties": { "id": "08f44c1a8196d834030848d5a83ae332", "name": "Fulton County Government", "confidence": 0.95374086990853457, "socials": [ "https://www.facebook.com/160743427287398" ] }, "geometry": { "type": "Point", "coordinates": [ -84.3982277, 33.7409281 ] } },
{ "type": "Feature", "properties": { "id": "08f44c1aaa5932c903919897c6cec634", "name": "MPressv Tresses", "confidence": 0.30856423173803527, "socials": [ "https://www.facebook.com/148446139197285" ] }, "geometry": { "type": "Point", "coordinates": [ -84.39826, 33.74103 ] } },
{ "type": "Feature", "properties": { "id": "08f44c1a81968d1103c75689c65ae564", "name": "Windsor Convenience Store", "confidence": 0.95374086990853457, "socials": [ "https://www.facebook.com/153801984633277" ] }, "geometry": { "type": "Point", "coordinates": [ -84.3980766, 33.7409389 ] } },
{ "type": "Feature", "properties": { "id": "08f44c1a8196c20b037fceb66f2076bc", "name": "គុណធម៍ជីវិត", "confidence": 0.24594992636229751, "socials": [ "https://www.facebook.com/117808841418373" ] }, "geometry": { "type": "Point", "coordinates": [ -84.3977854, 33.7410735 ] } },
{ "type": "Feature", "properties": { "id": "08f44c1a8196d5ad030801a5d99a4cec", "name": "Tina G. Marsden", "confidence": 0.25185185185185177, "socials": [ "https://www.facebook.com/151859351336401" ] }, "geometry": { "type": "Point", "coordinates": [ -84.3978471, 33.7411491 ] } },
{ "type": "Feature", "properties": { "id": "08f44c1a81968576031019fbdfe93d34", "name": "City Views At Rosa Burney Park", "confidence": 0.95890559100248729, "socials": [ "https://www.facebook.com/143774558991382" ] }, "geometry": { "type": "Point", "coordinates": [ -84.3974221, 33.7413311 ] } },
{ "type": "Feature", "properties": { "id": "08f44c1aaa432cd303d729f721657879", "name": "Sheltering Arms Educare Center", "confidence": 0.95888157894736847, "socials": [ "https://www.facebook.com/140983979394511" ] }, "geometry": { "type": "Point", "coordinates": [ -84.401, 33.7417641 ] } },
{ "type": "Feature", "properties": { "id": "08f44c1aaa4a09350341cbd1cc7e4691", "name": "Arrow security safety", "confidence": 0.95732478704562707, "socials": [ "https://www.facebook.com/198931793905986" ] }, "geometry": { "type": "Point", "coordinates": [ -84.3996755, 33.7423179 ] } },
{ "type": "Feature", "properties": { "id": "08f44c1aaa4a3d2c0391d60d5a6f3081", "name": "Aolle", "confidence": 0.25185185185185177, "socials": [ "https://www.facebook.com/105825715668371" ] }, "geometry": { "type": "Point", "coordinates": [ -84.39936, 33.74273 ] } },
{ "type": "Feature", "properties": { "id": "08f44c1aaa4b639803933a6d9c1f6317", "name": "Creative Tv", "confidence": 0.24594992636229751, "socials": [ "https://www.facebook.com/113586178486444" ] }, "geometry": { "type": "Point", "coordinates": [ -84.39783, 33.74221 ] } },
{ "type": "Feature", "properties": { "id": "08f44c1aaa4b639803e9fa62e37b478c", "name": "bp America", "confidence": 0.98936040007896298, "socials": [ "https://www.facebook.com/247491759641933" ] }, "geometry": { "type": "Point", "coordinates": [ -84.3978309, 33.7422147 ] } },
{ "type": "Feature", "properties": { "id": "08f44c1aaa480b58035cb15f71fb4c09", "name": "Vinuka", "confidence": 0.24594992636229751, "socials": [ "https://www.facebook.com/102925426140328" ] }, "geometry": { "type": "Point", "coordinates": [ -84.39904, 33.7435114 ] } },
{ "type": "Feature", "properties": { "id": "08f44c1aaa4854b0035c763c87a9c220", "name": "FedEx Ship Center", "confidence": 0.77, "socials": null }, "geometry": { "type": "Point", "coordinates": [ -84.39901, 33.743364 ] } },
{ "type": "Feature", "properties": { "id": "08f44c1aaa4427150386d8773ca97f81", "name": "GrossiWeb - Atlanta Web Design & Internet Marketing", "confidence": 0.77, "socials": null }, "geometry": { "type": "Point", "coordinates": [ -84.40418, 33.74521 ] } },
{ "type": "Feature", "properties": { "id": "08f44c1aaa451a8203e7b61209e70a6c", "name": "Lyric Lofts", "confidence": 0.95374086990853457, "socials": [ "https://www.facebook.com/100981079499605" ] }, "geometry": { "type": "Point", "coordinates": [ -84.4039121, 33.7452809 ] } },
{ "type": "Feature", "properties": { "id": "08f44c1aaa45c10e0369db66b915fe1f", "name": "Fulton Loan Office", "confidence": 0.98936040007896298, "socials": [ "https://www.facebook.com/188624314326072" ] }, "geometry": { "type": "Point", "coordinates": [ -84.4041068, 33.7454553 ] } },
{ "type": "Feature", "properties": { "id": "08f44c1aaa45e288036d7618fb0109d1", "name": "Peters Street Station", "confidence": 0.95374086990853457, "socials": [ "https://www.facebook.com/237328353750361" ] }, "geometry": { "type": "Point", "coordinates": [ -84.403892, 33.745865 ] } },
{ "type": "Feature", "properties": { "id": "08f44c1aaa451653034d8196cca722b4", "name": "Im.ericwang", "confidence": 0.26517967781908303, "socials": [ "https://www.facebook.com/170530129473946" ] }, "geometry": { "type": "Point", "coordinates": [ -84.40372, 33.7454341 ] } },
{ "type": "Feature", "properties": { "id": "08f44c1aaa45ea5e0387cf6866e3f853", "name": "Hey Brown Girl You're Beautiful Mural", "confidence": 0.95888157894736847, "socials": [ "https://www.facebook.com/103865314818800" ] }, "geometry": { "type": "Point", "coordinates": [ -84.4038141, 33.7456989 ] } },
{ "type": "Feature", "properties": { "id": "08f44c1aaa45e53103aa76c612688535", "name": "หวยไทย", "confidence": 0.26517967781908303, "socials": [ "https://www.facebook.com/107555928689654" ] }, "geometry": { "type": "Point", "coordinates": [ -84.4035, 33.74558 ] } },
{ "type": "Feature", "properties": { "id": "08f44c1aaa45e531038a94cee01ff1ae", "name": "Fruits Lover", "confidence": 0.24594992636229751, "socials": [ "https://www.facebook.com/105773011429903" ] }, "geometry": { "type": "Point", "coordinates": [ -84.4035, 33.74558 ] } },
{ "type": "Feature", "properties": { "id": "08f44c1aaa45e5310304362b0513a543", "name": "76M", "confidence": 0.24594992636229751, "socials": [ "https://www.facebook.com/102004681840724" ] }, "geometry": { "type": "Point", "coordinates": [ -84.4035, 33.74558 ] } },
{ "type": "Feature", "properties": { "id": "08f44c1aaa45e531035f4b38b65096e8", "name": "Brooke Monk.", "confidence": 0.25185185185185177, "socials": [ "https://www.facebook.com/263905996806402" ] }, "geometry": { "type": "Point", "coordinates": [ -84.4035, 33.74558 ] } },
{ "type": "Feature", "properties": { "id": "08f44c1aaa45e53103b87449d3ce4f6c", "name": "Fireborn Promotions", "confidence": 0.98265086206896546, "socials": [ "https://www.facebook.com/301811209672248" ] }, "geometry": { "type": "Point", "coordinates": [ -84.4035, 33.74558 ] } },
{ "type": "Feature", "properties": { "id": "08f44c1aaa45e53103675636f9e53345", "name": "T H Y", "confidence": 0.25185185185185177, "socials": [ "https://www.facebook.com/100155101960995" ] }, "geometry": { "type": "Point", "coordinates": [ -84.4035, 33.74558 ] } },
{ "type": "Feature", "properties": { "id": "08f44c1aaa45e53103db5729e122cc80", "name": "Girlfriends", "confidence": 0.24594992636229751, "socials": [ "https://www.facebook.com/100278322004226" ] }, "geometry": { "type": "Point", "coordinates": [ -84.4035, 33.74558 ] } },
{ "type": "Feature", "properties": { "id": "08f44c1aaa45e53103ae791494a69af4", "name": "Viral Video", "confidence": 0.24594992636229751, "socials": [ "https://www.facebook.com/101724319527222" ] }, "geometry": { "type": "Point", "coordinates": [ -84.4035, 33.74558 ] } },
{ "type": "Feature", "properties": { "id": "08f44c1aaa45e53103211614c23f36af", "name": "Charlotte Brown", "confidence": 0.25185185185185177, "socials": [ "https://www.facebook.com/300312369835322" ] }, "geometry": { "type": "Point", "coordinates": [ -84.4035, 33.74558 ] } },
{ "type": "Feature", "properties": { "id": "08f44c1aaa45e53103cbae3a4bca93d4", "name": "Gregory Smith", "confidence": 0.24594992636229751, "socials": [ "https://www.facebook.com/230292546841486" ] }, "geometry": { "type": "Point", "coordinates": [ -84.4035, 33.74558 ] } },
{ "type": "Feature", "properties": { "id": "08f44c1aaa45e42503e8b1120a875e98", "name": "Dasha Gus", "confidence": 0.27546777546777546, "socials": [ "https://www.facebook.com/104408205846928" ] }, "geometry": { "type": "Point", "coordinates": [ -84.40351, 33.74564 ] } },
{ "type": "Feature", "properties": { "id": "08f44c1aaa45e358035cf1d935d787b2", "name": "Escobar Restaurant & Tapas", "confidence": 0.95890559100248729, "socials": [ "https://www.facebook.com/214294702473224" ] }, "geometry": { "type": "Point", "coordinates": [ -84.4038224, 33.7458337 ] } },
{ "type": "Feature", "properties": { "id": "08f44c1aaa45e23103b9b63ac3e9a3a5", "name": "Kota Rhea Alena Cadwell", "confidence": 0.26517967781908303, "socials": [ "https://www.facebook.com/106013185625400" ] }, "geometry": { "type": "Point", "coordinates": [ -84.4037634, 33.7458216 ] } },
{ "type": "Feature", "properties": { "id": "08f44c1aaa45e6550344eedb5e4c69e8", "name": "Esco Downtown", "confidence": 0.77, "socials": null }, "geometry": { "type": "Point", "coordinates": [ -84.403829, 33.745867 ] } },
{ "type": "Feature", "properties": { "id": "08f44c1aaa45e240030ff7712856994c", "name": "Thrive Housing Solutions", "confidence": 0.24594992636229751, "socials": [ "https://www.facebook.com/449182348542016" ] }, "geometry": { "type": "Point", "coordinates": [ -84.403822, 33.74588 ] } },
{ "type": "Feature", "properties": { "id": "08f44c1aaa4532e40342cc5e9073e1a5", "name": "ម៉ាលី-Kun Maly", "confidence": 0.26517967781908303, "socials": [ "https://www.facebook.com/111215578644118" ] }, "geometry": { "type": "Point", "coordinates": [ -84.4034046, 33.7455384 ] } },
{ "type": "Feature", "properties": { "id": "08f44c1aaa4eca8203a221b44ff60b2c", "name": "F22 Studio Photography", "confidence": 0.4907481898632341, "socials": [ "https://www.facebook.com/227655587594" ] }, "geometry": { "type": "Point", "coordinates": [ -84.4029413, 33.7454883 ] } },
{ "type": "Feature", "properties": { "id": "08f44c1aaa4ed09d03ec779932825c22", "name": "Avid Music", "confidence": 0.27546777546777546, "socials": [ "https://www.facebook.com/673509149450761" ] }, "geometry": { "type": "Point", "coordinates": [ -84.4031219, 33.7458191 ] } },
{ "type": "Feature", "properties": { "id": "08f44c1aaa4ed09903f9d5f10963afd8", "name": "Cecilia Patel", "confidence": 0.30856423173803527, "socials": [ "https://www.facebook.com/176711942194770" ] }, "geometry": { "type": "Point", "coordinates": [ -84.40312, 33.74583 ] } },
{ "type": "Feature", "properties": { "id": "08f44c1aaa4ec6b40369cb92144cb4cc", "name": "West Lumber Condominiums", "confidence": 0.95445655210952784, "socials": [ "https://www.facebook.com/101365438071515" ] }, "geometry": { "type": "Point", "coordinates": [ -84.4026494, 33.7455751 ] } },
{ "type": "Feature", "properties": { "id": "08f44c1aaa45a94d039a592760e33de3", "name": "ChrissyK's", "confidence": 0.98022070015220697, "socials": [ "https://www.facebook.com/358038217720761" ] }, "geometry": { "type": "Point", "coordinates": [ -84.403693, 33.7459541 ] } },
{ "type": "Feature", "properties": { "id": "08f44c1aaa4584a6039aa1fdcf638e8a", "name": "Practical Combat Applications", "confidence": 0.30856423173803527, "socials": [ "https://www.facebook.com/369379969800614" ] }, "geometry": { "type": "Point", "coordinates": [ -84.403793, 33.74598 ] } },
{ "type": "Feature", "properties": { "id": "08f44c1aaa45a94d03c9b90e2947526d", "name": "Miya’s Loft ", "confidence": 0.24594992636229751, "socials": [ "https://www.facebook.com/110275298558888" ] }, "geometry": { "type": "Point", "coordinates": [ -84.40376, 33.74598 ] } },
{ "type": "Feature", "properties": { "id": "08f44c1aaa45a94d0380aa894c3ead69", "name": "Giant Zoo", "confidence": 0.26517967781908303, "socials": [ "https://www.facebook.com/188584704339831" ] }, "geometry": { "type": "Point", "coordinates": [ -84.40376, 33.74598 ] } },
{ "type": "Feature", "properties": { "id": "08f44c1aaa45a94d03980859163539b6", "name": "Kxng", "confidence": 0.25185185185185177, "socials": [ "https://www.facebook.com/345619038883181" ] }, "geometry": { "type": "Point", "coordinates": [ -84.40376, 33.74598 ] } },
{ "type": "Feature", "properties": { "id": "08f44c1aaa45a94d03a3fa4c160fce12", "name": "Clean and Sharp Tattoo", "confidence": 0.95732478704562707, "socials": [ "https://www.facebook.com/233555950131842" ] }, "geometry": { "type": "Point", "coordinates": [ -84.4037826, 33.74599 ] } },
{ "type": "Feature", "properties": { "id": "08f44c1aaa4584b1037b90f5a17b1100", "name": "City of Ink", "confidence": 0.95445655210952784, "socials": [ "https://www.facebook.com/84743347903" ] }, "geometry": { "type": "Point", "coordinates": [ -84.4037232, 33.7459704 ] } },
{ "type": "Feature", "properties": { "id": "08f44c1aaa4584b103abb179e5e40938", "name": "Protect Yo Energy Bodega", "confidence": 0.95374086990853457, "socials": [ "https://www.facebook.com/108265331778716" ] }, "geometry": { "type": "Point", "coordinates": [ -84.4036894, 33.7459764 ] } },
{ "type": "Feature", "properties": { "id": "08f44c1aaa45a82a0371429d480e99b1", "name": "Supreme Tooth Gems", "confidence": 0.95732478704562707, "socials": [ "https://www.facebook.com/101577408675466" ] }, "geometry": { "type": "Point", "coordinates": [ -84.4036812, 33.7459771 ] } },
{ "type": "Feature", "properties": { "id": "08f44c1aaa45e346033626d2f8d7a656", "name": "Closette", "confidence": 0.95374086990853457, "socials": [ "https://www.facebook.com/103264542198414" ] }, "geometry": { "type": "Point", "coordinates": [ -84.4036637, 33.745906 ] } },
{ "type": "Feature", "properties": { "id": "08f44c1aaa45a8510313880dd0e5b12d", "name": "Pamper Nail Studio", "confidence": 0.95374086990853457, "socials": [ "https://www.facebook.com/100161181533158" ] }, "geometry": { "type": "Point", "coordinates": [ -84.4036348, 33.7460101 ] } },
{ "type": "Feature", "properties": { "id": "08f44c1aaa4ed76d03c018ebf1b989c5", "name": "Coffee Loft", "confidence": 0.95890559100248729, "socials": [ "https://www.facebook.com/100504533343887" ] }, "geometry": { "type": "Point", "coordinates": [ -84.403267, 33.745959 ] } },
{ "type": "Feature", "properties": { "id": "08f44c1aaa4ed76d03bf8999d98ae8f2", "name": "9 Ace Gallery", "confidence": 0.95890559100248729, "socials": [ "https://www.facebook.com/109370299231905" ] }, "geometry": { "type": "Point", "coordinates": [ -84.403229, 33.7459969 ] } },
{ "type": "Feature", "properties": { "id": "08f44c1aaa4e9a0103a2a585dbe08091", "name": "Howard's Barber Shop", "confidence": 0.95890559100248729, "socials": [ "https://www.facebook.com/103268960020032" ] }, "geometry": { "type": "Point", "coordinates": [ -84.4032429, 33.7462083 ] } },
{ "type": "Feature", "properties": { "id": "08f44c1aaa4e9a50033dda614408e065", "name": "Atlanta MC", "confidence": 0.95890559100248729, "socials": [ "https://www.facebook.com/116160954806875" ] }, "geometry": { "type": "Point", "coordinates": [ -84.4032892, 33.7462808 ] } },
{ "type": "Feature", "properties": { "id": "08f44c1aaa4ed69c03db2816b2c8db97", "name": "Atlanta City Baptist Rescue Mission", "confidence": 0.95890559100248729, "socials": [ "https://www.facebook.com/119490064451047" ] }, "geometry": { "type": "Point", "coordinates": [ -84.4031078, 33.7460242 ] } },
{ "type": "Feature", "properties": { "id": "08f44c1aaa4e8340034d035cc86173b5", "name": "310 Peters", "confidence": 0.27546777546777546, "socials": [ "https://www.facebook.com/1060304677464685" ] }, "geometry": { "type": "Point", "coordinates": [ -84.402864, 33.746031 ] } },
{ "type": "Feature", "properties": { "id": "08f44c1aaa4e80ab03a5005f89ab61f9", "name": "The Hill", "confidence": 0.25185185185185177, "socials": [ "https://www.facebook.com/320565818027082" ] }, "geometry": { "type": "Point", "coordinates": [ -84.4026629, 33.7459192 ] } },
{ "type": "Feature", "properties": { "id": "08f44c1aaa4e838b03c80f0246b7b8b5", "name": "310 Studios ATL", "confidence": 0.95374086990853457, "socials": [ "https://www.facebook.com/100330692815074" ] }, "geometry": { "type": "Point", "coordinates": [ -84.4025265, 33.74596 ] } },
{ "type": "Feature", "properties": { "id": "08f44c1aaa7b691103b18c5bbc53da9e", "name": "Peters Street Commons", "confidence": 0.27546777546777546, "socials": [ "https://www.facebook.com/101623975541125" ] }, "geometry": { "type": "Point", "coordinates": [ -84.4030558, 33.7464528 ] } },
{ "type": "Feature", "properties": { "id": "08f44c1aaa7b6895035a9981c9a7ef48", "name": "Kota Logan Angelica Noble", "confidence": 0.25185185185185177, "socials": [ "https://www.facebook.com/106539335575230" ] }, "geometry": { "type": "Point", "coordinates": [ -84.40297, 33.74652 ] } },
{ "type": "Feature", "properties": { "id": "08f44c1aaa7b6895038ccdf99ff9ba24", "name": "CRU Peters St", "confidence": 0.26517967781908303, "socials": [ "https://www.facebook.com/103925275694335" ] }, "geometry": { "type": "Point", "coordinates": [ -84.40297, 33.74652 ] } },
{ "type": "Feature", "properties": { "id": "08f44c1aaa7b6895032f2cc1cb0585c6", "name": "Say Hi", "confidence": 0.25185185185185177, "socials": [ "https://www.facebook.com/112608281871222" ] }, "geometry": { "type": "Point", "coordinates": [ -84.40297, 33.7465207 ] } },
{ "type": "Feature", "properties": { "id": "08f44c1aaa7b614203b0d8362fbd615b", "name": "CRU Hookah Lounge", "confidence": 0.95374086990853457, "socials": [ "https://www.facebook.com/1507998302764863" ] }, "geometry": { "type": "Point", "coordinates": [ -84.4029138, 33.7464905 ] } },
{ "type": "Feature", "properties": { "id": "08f44c1aaa7b6c52032a89a080476e7d", "name": "Diamond Room", "confidence": 0.95675776862598283, "socials": [ "https://www.facebook.com/154278884999808" ] }, "geometry": { "type": "Point", "coordinates": [ -84.4028339, 33.7465055 ] } },
{ "type": "Feature", "properties": { "id": "08f44c1aaa7b615503369eed1e8f98bb", "name": "Beautiful Dollhouse Salon", "confidence": 0.77, "socials": null }, "geometry": { "type": "Point", "coordinates": [ -84.4032983, 33.7467348 ] } },
{ "type": "Feature", "properties": { "id": "08f44c1aaa7b080003028d3d42ca8f6b", "name": "Atlanta Furniture Company", "confidence": 0.990054286783976, "socials": [ "https://www.facebook.com/103243335107242" ] }, "geometry": { "type": "Point", "coordinates": [ -84.4033571, 33.7468106 ] } },
{ "type": "Feature", "properties": { "id": "08f44c1aaa7b615d0313cfa0861b10cb", "name": "24-7 Vixen Life", "confidence": 0.55927835051546393, "socials": [ "https://www.facebook.com/367219276727103" ] }, "geometry": { "type": "Point", "coordinates": [ -84.402971, 33.746588 ] } },
{ "type": "Feature", "properties": { "id": "08f44c1aaa7b615b0307c657c184ee9c", "name": "Style by Christina", "confidence": 0.95732478704562707, "socials": [ "https://www.facebook.com/569616013243147" ] }, "geometry": { "type": "Point", "coordinates": [ -84.4028575, 33.7465997 ] } },
{ "type": "Feature", "properties": { "id": "08f44c1aaa7b645803472af6d4ff814a", "name": "Art Box ATL", "confidence": 0.95890559100248729, "socials": [ "https://www.facebook.com/209120789787612" ] }, "geometry": { "type": "Point", "coordinates": [ -84.4027264, 33.7466331 ] } },
{ "type": "Feature", "properties": { "id": "08f44c1aaa4cdb66036531f93af77a98", "name": "HUeMAN TV Headquarters", "confidence": 0.95374086990853457, "socials": [ "https://www.facebook.com/597182220944130" ] }, "geometry": { "type": "Point", "coordinates": [ -84.4026389, 33.7467144 ] } },
{ "type": "Feature", "properties": { "id": "08f44c1aaa4cdb4e03c2fa9b8b24aec1", "name": "Holder Photography & Television Studio", "confidence": 0.95374086990853457, "socials": [ "https://www.facebook.com/139870592743775" ] }, "geometry": { "type": "Point", "coordinates": [ -84.4026357, 33.7467333 ] } },
{ "type": "Feature", "properties": { "id": "08f44c1aaa7b2db303413209308d8fcc", "name": "On Time Agency", "confidence": 0.95374086990853457, "socials": [ "https://www.facebook.com/112137011404451" ] }, "geometry": { "type": "Point", "coordinates": [ -84.4025886, 33.7467939 ] } },
{ "type": "Feature", "properties": { "id": "08f44c1aaa4c992903cdfc007ba1eeba", "name": "Milaadkmagic", "confidence": 0.24594992636229751, "socials": [ "https://www.facebook.com/115454858314122" ] }, "geometry": { "type": "Point", "coordinates": [ -84.4025, 33.747 ] } },
{ "type": "Feature", "properties": { "id": "08f44c1aaa781446032a57eb43a6cfd7", "name": "Ziaire", "confidence": 0.24594992636229751, "socials": [ "https://www.facebook.com/2116617285257110" ] }, "geometry": { "type": "Point", "coordinates": [ -84.4041552, 33.7484108 ] } },
{ "type": "Feature", "properties": { "id": "08f44c1aaa78317103ea7dbce0f84338", "name": "National Dump Trucking Association - NDTA", "confidence": 0.91400304414003042, "socials": [ "https://www.facebook.com/265913046613745" ] }, "geometry": { "type": "Point", "coordinates": [ -84.40388, 33.74846 ] } },
{ "type": "Feature", "properties": { "id": "08f44c1aaa78317103137f3fe7d22a8d", "name": "SUBSUME", "confidence": 0.27546777546777546, "socials": [ "https://www.facebook.com/109744000431361" ] }, "geometry": { "type": "Point", "coordinates": [ -84.40388, 33.74846 ] } },
{ "type": "Feature", "properties": { "id": "08f44c1aaa783171031fa6a1221de798", "name": "Mocha Travel", "confidence": 0.91400304414003042, "socials": [ "https://www.facebook.com/113709344147292" ] }, "geometry": { "type": "Point", "coordinates": [ -84.40388, 33.74846 ] } },
{ "type": "Feature", "properties": { "id": "08f44c1aaa7831710373bde56e9bedfe", "name": "Candles & Conjure", "confidence": 0.26517967781908303, "socials": [ "https://www.facebook.com/102211239343403" ] }, "geometry": { "type": "Point", "coordinates": [ -84.4038773, 33.7484611 ] } },
{ "type": "Feature", "properties": { "id": "08f44c1aaa786369035fb741b1c961c0", "name": "Carl M Williams Funeral Directors", "confidence": 0.95374086990853457, "socials": [ "https://www.facebook.com/1821147841457822" ] }, "geometry": { "type": "Point", "coordinates": [ -84.4037055, 33.7479309 ] } },
{ "type": "Feature", "properties": { "id": "08f44c1aaa7b345103a3f3534c0ae4eb", "name": "Marcia Wood Gallery", "confidence": 0.77, "socials": null }, "geometry": { "type": "Point", "coordinates": [ -84.4030457, 33.7474442 ] } },
{ "type": "Feature", "properties": { "id": "08f44c1aaa795c75030e7de5696a42a9", "name": "Atlanta Renaissance", "confidence": 0.55927835051546393, "socials": [ "https://www.facebook.com/133139780377707" ] }, "geometry": { "type": "Point", "coordinates": [ -84.403038, 33.7477074 ] } },
{ "type": "Feature", "properties": { "id": "08f44c1aaa79434d0309b41b17f9b80d", "name": "Upstage Style", "confidence": 0.26517967781908303, "socials": [ "https://www.facebook.com/454435178096164" ] }, "geometry": { "type": "Point", "coordinates": [ -84.4028914, 33.7476743 ] } },
{ "type": "Feature", "properties": { "id": "08f44c1aaa79420e03f00780745f894a", "name": "Pre Atlanta", "confidence": 0.95732478704562707, "socials": [ "https://www.facebook.com/103706505416283" ] }, "geometry": { "type": "Point", "coordinates": [ -84.4028441, 33.7477046 ] } },
{ "type": "Feature", "properties": { "id": "08f44c1aaa7951a803589a01093e0dd2", "name": "Lock Smiths of Atlanta LLC", "confidence": 0.26517967781908303, "socials": [ "https://www.facebook.com/385698704959200" ] }, "geometry": { "type": "Point", "coordinates": [ -84.4030533, 33.7477989 ] } },
{ "type": "Feature", "properties": { "id": "08f44c1aaa795195037df9dfe327a94f", "name": "CarolsVibez", "confidence": 0.95445655210952784, "socials": [ "https://www.facebook.com/107504415334656" ] }, "geometry": { "type": "Point", "coordinates": [ -84.4030126, 33.7477927 ] } },
{ "type": "Feature", "properties": { "id": "08f44c1aaa79462003794ca339bd0313", "name": "Niche", "confidence": 0.95374086990853457, "socials": [ "https://www.facebook.com/78445086238" ] }, "geometry": { "type": "Point", "coordinates": [ -84.4027602, 33.7476671 ] } },
{ "type": "Feature", "properties": { "id": "08f44c1aaa79462a03a37bb557b7bf5f", "name": "One Seven Creative Cafe", "confidence": 0.55927835051546393, "socials": [ "https://www.facebook.com/109124170657383" ] }, "geometry": { "type": "Point", "coordinates": [ -84.40263, 33.74766 ] } },
{ "type": "Feature", "properties": { "id": "08f44c1aaa790c2103f3d5b5c527dbc1", "name": "Atlanta Smartphone Repair by Spurgeon", "confidence": 0.26517967781908303, "socials": [ "https://www.facebook.com/1605683366316238" ] }, "geometry": { "type": "Point", "coordinates": [ -84.40253, 33.74778 ] } },
{ "type": "Feature", "properties": { "id": "08f44c1aaa790c2103a6e20838010db9", "name": "Naturals-Hair-Bar", "confidence": 0.25185185185185177, "socials": [ "https://www.facebook.com/1497888440433666" ] }, "geometry": { "type": "Point", "coordinates": [ -84.4025269, 33.7477798 ] } },
{ "type": "Feature", "properties": { "id": "08f44c1aaa7910f603cbfbf753443b51", "name": "Eclipz Hair Salon", "confidence": 0.95732478704562707, "socials": [ "https://www.facebook.com/310643368982087" ] }, "geometry": { "type": "Point", "coordinates": [ -84.4028358, 33.7481884 ] } },
{ "type": "Feature", "properties": { "id": "08f44c1aaa79142903726795a3980552", "name": "Simply Naked Candle Co Atlanta", "confidence": 0.95888157894736847, "socials": [ "https://www.facebook.com/111311637293720" ] }, "geometry": { "type": "Point", "coordinates": [ -84.4028015, 33.7482681 ] } },
{ "type": "Feature", "properties": { "id": "08f44c1aaa79170e03641408d9661605", "name": "Waterlab", "confidence": 0.25185185185185177, "socials": [ "https://www.facebook.com/346319459169021" ] }, "geometry": { "type": "Point", "coordinates": [ -84.40288, 33.74837 ] } },
{ "type": "Feature", "properties": { "id": "08f44c1aaa79170e033db3b875f8b703", "name": "SERYUS Property Group LLC", "confidence": 0.95374086990853457, "socials": [ "https://www.facebook.com/953886754668358" ] }, "geometry": { "type": "Point", "coordinates": [ -84.4027739, 33.7483084 ] } },
{ "type": "Feature", "properties": { "id": "08f44c1aaa79313103cabf455f3a6591", "name": "Adrian Shelby Photography & Studios", "confidence": 0.95732478704562707, "socials": [ "https://www.facebook.com/198829973521062" ] }, "geometry": { "type": "Point", "coordinates": [ -84.4025484, 33.7483287 ] } },
{ "type": "Feature", "properties": { "id": "08f44c1aaa7931b303c97d155317fe5a", "name": "Shoe Lounge", "confidence": 0.98805769230769225, "socials": [ "https://www.facebook.com/199128353454686" ] }, "geometry": { "type": "Point", "coordinates": [ -84.4024917, 33.7483656 ] } },
{ "type": "Feature", "properties": { "id": "08f44c1aaa7813a003626504a9f11272", "name": "GMEN- Georgia Micro Enterprise Network", "confidence": 0.95374086990853457, "socials": [ "https://www.facebook.com/529338300484537" ] }, "geometry": { "type": "Point", "coordinates": [ -84.4042803, 33.7486632 ] } },
{ "type": "Feature", "properties": { "id": "08f44c1aaa78e83103e382d8b1356fab", "name": "Raquel Hill and Company", "confidence": 0.95890559100248729, "socials": [ "https://www.facebook.com/289248361734183" ] }, "geometry": { "type": "Point", "coordinates": [ -84.4042817, 33.748669 ] } },
{ "type": "Feature", "properties": { "id": "08f44c1aaa7813a003d5c6eb46221494", "name": "The Veritas School of Social Sciences", "confidence": 0.95890559100248729, "socials": [ "https://www.facebook.com/348229582289633" ] }, "geometry": { "type": "Point", "coordinates": [ -84.404278, 33.7486667 ] } },
{ "type": "Feature", "properties": { "id": "08f44c1aaa78163203c931d72885df9c", "name": "Russell Innovation Center for Entrepreneurs", "confidence": 0.95374086990853457, "socials": [ "https://www.facebook.com/201623980286603" ] }, "geometry": { "type": "Point", "coordinates": [ -84.4040765, 33.748711 ] } },
{ "type": "Feature", "properties": { "id": "08f44c1aaa78322e032a45be5c772984", "name": "Russell New Urban Development", "confidence": 0.95888157894736847, "socials": [ "https://www.facebook.com/155037047864817" ] }, "geometry": { "type": "Point", "coordinates": [ -84.4039041, 33.7487115 ] } },
{ "type": "Feature", "properties": { "id": "08f44c1aaa78a7ab034c0cf17c8048af", "name": "Live On NorthSide Drive", "confidence": 0.4907481898632341, "socials": [ "https://www.facebook.com/874093142676554" ] }, "geometry": { "type": "Point", "coordinates": [ -84.4039281, 33.7493548 ] } },
{ "type": "Feature", "properties": { "id": "08f44c1aaa799675031029f8c6bb56e4", "name": "Legacy Lofts", "confidence": 0.99018470102049427, "socials": [ "https://www.facebook.com/100126059664973" ] }, "geometry": { "type": "Point", "coordinates": [ -84.4038452, 33.7493189 ] } },
{ "type": "Feature", "properties": { "id": "08f44c1aaa799a53031f08ac6ce2f94a", "name": "Paschal's Restaurant", "confidence": 0.99054828593057209, "socials": [ "https://www.facebook.com/152502918121547" ] }, "geometry": { "type": "Point", "coordinates": [ -84.403923, 33.749391 ] } },
{ "type": "Feature", "properties": { "id": "08f44c1aaa798084036171aac9b06d2e", "name": "Clarion Inn & Suites Atlanta Downtown", "confidence": 0.9905427631578948, "socials": [ "https://www.facebook.com/172992513535335" ] }, "geometry": { "type": "Point", "coordinates": [ -84.403147, 33.74905 ] } },
{ "type": "Feature", "properties": { "id": "08f44c1aaa79967503fcc3ab830dc397", "name": "Action Lab Shorts", "confidence": 0.25185185185185177, "socials": [ "https://www.facebook.com/109645772171924" ] }, "geometry": { "type": "Point", "coordinates": [ -84.40352, 33.74952 ] } },
{ "type": "Feature", "properties": { "id": "08f44c1aaa79967503cc41d6b2b72c31", "name": "Iran Nomadic", "confidence": 0.27546777546777546, "socials": [ "https://www.facebook.com/112684858560355" ] }, "geometry": { "type": "Point", "coordinates": [ -84.40352, 33.74952 ] } },
{ "type": "Feature", "properties": { "id": "08f44c1aaa799675038f4dc35c46bc08", "name": "Ocean Show TV", "confidence": 0.25185185185185177, "socials": [ "https://www.facebook.com/114060941525242" ] }, "geometry": { "type": "Point", "coordinates": [ -84.40352, 33.74952 ] } },
{ "type": "Feature", "properties": { "id": "08f44c1aaa6a298503010cff04a106dd", "name": "Intown Lofts", "confidence": 0.99054828593057209, "socials": [ "https://www.facebook.com/76517586323" ] }, "geometry": { "type": "Point", "coordinates": [ -84.4033802, 33.7498972 ] } },
{ "type": "Feature", "properties": { "id": "08f44c1aaa6b488603d690c354112704", "name": "Stonewall Lofts", "confidence": 0.98805769230769225, "socials": [ "https://www.facebook.com/111203315208791" ] }, "geometry": { "type": "Point", "coordinates": [ -84.4027035, 33.7494667 ] } },
{ "type": "Feature", "properties": { "id": "08f44c1aaa4f574003720024f33f261f", "name": "Atlanta Airport Taxicab", "confidence": 0.4907481898632341, "socials": [ "https://www.facebook.com/508880899225310" ] }, "geometry": { "type": "Point", "coordinates": [ -84.401204, 33.744709 ] } },
{ "type": "Feature", "properties": { "id": "08f44c1aaa4f572303f6809c02f18522", "name": "King Carter Financials", "confidence": 0.95374086990853457, "socials": [ "https://www.facebook.com/284333648807347" ] }, "geometry": { "type": "Point", "coordinates": [ -84.4012469, 33.7447465 ] } },
{ "type": "Feature", "properties": { "id": "08f44c1aaa4f570c03d77629c6e7a5af", "name": "Cab Hound Atlanta", "confidence": 0.95445655210952784, "socials": [ "https://www.facebook.com/531689193658087" ] }, "geometry": { "type": "Point", "coordinates": [ -84.4012474, 33.7447686 ] } },
{ "type": "Feature", "properties": { "id": "08f44c1aaa4f570d03ee96aef95786ba", "name": "Atlanta Royal Cabbies", "confidence": 0.98859354500131202, "socials": [ "https://www.facebook.com/215497295151091" ] }, "geometry": { "type": "Point", "coordinates": [ -84.4012431, 33.744774 ] } },
{ "type": "Feature", "properties": { "id": "08f44c1aaa4d491403071fb58a79e7b2", "name": "Car Culture's", "confidence": 0.24594992636229751, "socials": [ "https://www.facebook.com/388061351056914" ] }, "geometry": { "type": "Point", "coordinates": [ -84.40024, 33.7450174 ] } },
{ "type": "Feature", "properties": { "id": "08f44c1aaa4d44550301e7532dc84248", "name": "Georgia Department of Driver Services - Atlanta", "confidence": 0.95890559100248729, "socials": [ "https://www.facebook.com/1138175276234117" ] }, "geometry": { "type": "Point", "coordinates": [ -84.399911, 33.7452915 ] } },
{ "type": "Feature", "properties": { "id": "08f44c1aaa4d1c7303007ba37146469f", "name": "The Formula ATL", "confidence": 0.55927835051546393, "socials": [ "https://www.facebook.com/1817858485130091" ] }, "geometry": { "type": "Point", "coordinates": [ -84.40034, 33.7458699 ] } },
{ "type": "Feature", "properties": { "id": "08f44c1aaa4d2868034a99cf13985f46", "name": "Rock Angel", "confidence": 0.27546777546777546, "socials": [ "https://www.facebook.com/155531437815240" ] }, "geometry": { "type": "Point", "coordinates": [ -84.39972, 33.74568 ] } },
{ "type": "Feature", "properties": { "id": "08f44c1aaa4cc31403aab7dbf824790d", "name": "Shaysulivan", "confidence": 0.26517967781908303, "socials": [ "https://www.facebook.com/384853608045323" ] }, "geometry": { "type": "Point", "coordinates": [ -84.40218, 33.74651 ] } },
{ "type": "Feature", "properties": { "id": "08f44c1aaa4cc540036b28bc98320061", "name": "Jacob Knowles", "confidence": 0.26517967781908303, "socials": [ "https://www.facebook.com/196936176847688" ] }, "geometry": { "type": "Point", "coordinates": [ -84.4019744, 33.7464014 ] } },
{ "type": "Feature", "properties": { "id": "08f44c1aaa4ce85303ddb4329a8733b6", "name": "Omni Coffee", "confidence": 0.95374086990853457, "socials": [ "https://www.facebook.com/389948900865450" ] }, "geometry": { "type": "Point", "coordinates": [ -84.4017351, 33.7464516 ] } },
{ "type": "Feature", "properties": { "id": "08f44c1aaa4c994e031b2935867b587f", "name": "Frost Bistro & Bar", "confidence": 0.95732478704562707, "socials": [ "https://www.facebook.com/117784482954267" ] }, "geometry": { "type": "Point", "coordinates": [ -84.4024469, 33.7469699 ] } },
{ "type": "Feature", "properties": { "id": "08f44c1aaa4c901503e27baec3d3339d", "name": "Lashedfromheaven", "confidence": 0.27546777546777546, "socials": [ "https://www.facebook.com/100603215033830" ] }, "geometry": { "type": "Point", "coordinates": [ -84.40233, 33.74718 ] } },
{ "type": "Feature", "properties": { "id": "08f44c1aaa4c900003efea0aefca2813", "name": "Fly Kix Atl", "confidence": 0.4907481898632341, "socials": [ "https://www.facebook.com/202981073126308" ] }, "geometry": { "type": "Point", "coordinates": [ -84.402329, 33.74725 ] } },
{ "type": "Feature", "properties": { "id": "08f44c1aaa4c82320354301170cecd37", "name": "U-Haul Moving & Storage at Peters St", "confidence": 0.77, "socials": null }, "geometry": { "type": "Point", "coordinates": [ -84.402046, 33.7469942 ] } },
{ "type": "Feature", "properties": { "id": "08f44c1aaa4d3040034cdfe4cfa0c664", "name": "Atlanta Airport Shuttle", "confidence": 0.30856423173803527, "socials": [ "https://www.facebook.com/308754559567760" ] }, "geometry": { "type": "Point", "coordinates": [ -84.39996, 33.74614 ] } },
{ "type": "Feature", "properties": { "id": "08f44c1aaa48a49903a840f2f48d4d7a", "name": "Kid spark8873", "confidence": 0.25185185185185177, "socials": [ "https://www.facebook.com/163038376903406" ] }, "geometry": { "type": "Point", "coordinates": [ -84.39865, 33.74471 ] } },
{ "type": "Feature", "properties": { "id": "08f44c1a818696ca030d673548d2849a", "name": "David TV3", "confidence": 0.24594992636229751, "socials": [ "https://www.facebook.com/101383645775148" ] }, "geometry": { "type": "Point", "coordinates": [ -84.3969727, 33.7448966 ] } },
{ "type": "Feature", "properties": { "id": "08f44c1a81b31aea03a51d690fe72aca", "name": "RAIN OR SHINE Heating", "confidence": 0.27546777546777546, "socials": [ "https://www.facebook.com/703011849733283" ] }, "geometry": { "type": "Point", "coordinates": [ -84.3979, 33.74584 ] } },
{ "type": "Feature", "properties": { "id": "08f44c1a81b230ad0312883b3fc91e49", "name": "UFOCNG Stations", "confidence": 0.30856423173803527, "socials": [ "https://www.facebook.com/965368286889636" ] }, "geometry": { "type": "Point", "coordinates": [ -84.3985278, 33.7460008 ] } },
{ "type": "Feature", "properties": { "id": "08f44c1a81b23312030b1196097cd878", "name": "Dogwood Fire Damage Co", "confidence": 0.94807692307692304, "socials": [ "https://www.facebook.com/103715062564038" ] }, "geometry": { "type": "Point", "coordinates": [ -84.3986277, 33.74607 ] } },
{ "type": "Feature", "properties": { "id": "08f44c1aaa4cba8903e315b7dd218ff8", "name": "Market Lofts", "confidence": 0.95888157894736847, "socials": [ "https://www.facebook.com/152153711492964" ] }, "geometry": { "type": "Point", "coordinates": [ -84.4019694, 33.7473226 ] } },
{ "type": "Feature", "properties": { "id": "08f44c1aaa4cb76c03b39d597093c170", "name": "Stable 1897 Events", "confidence": 0.95445655210952784, "socials": [ "https://www.facebook.com/114276644858988" ] }, "geometry": { "type": "Point", "coordinates": [ -84.4018526, 33.7474125 ] } },
{ "type": "Feature", "properties": { "id": "08f44c1aaa796431033820604257a133", "name": "Studio H Architecture Planning Environments", "confidence": 0.24594992636229751, "socials": [ "https://www.facebook.com/1340754952649440" ] }, "geometry": { "type": "Point", "coordinates": [ -84.40203, 33.74759 ] } },
{ "type": "Feature", "properties": { "id": "08f44c1aaa79640e033364fea49af546", "name": "Omni Coffee & Eggs", "confidence": 0.95445655210952784, "socials": [ "https://www.facebook.com/205126068199247" ] }, "geometry": { "type": "Point", "coordinates": [ -84.4019103, 33.7475071 ] } },
{ "type": "Feature", "properties": { "id": "08f44c1aaa79641d0380d70ce6301bc0", "name": "Couple Life Show", "confidence": 0.30856423173803527, "socials": [ "https://www.facebook.com/105046469346560" ] }, "geometry": { "type": "Point", "coordinates": [ -84.40203, 33.74762 ] } },
{ "type": "Feature", "properties": { "id": "08f44c1a81b658ed031bc1b549abca36", "name": "The Spinning Pie", "confidence": 0.77, "socials": null }, "geometry": { "type": "Point", "coordinates": [ -84.4018637, 33.7476487 ] } },
{ "type": "Feature", "properties": { "id": "08f44c1a81b65b8c03848786f5f85d68", "name": "Koha Emberly Paula Cobain", "confidence": 0.26517967781908303, "socials": [ "https://www.facebook.com/112699584772042" ] }, "geometry": { "type": "Point", "coordinates": [ -84.40189, 33.74771 ] } },
{ "type": "Feature", "properties": { "id": "08f44c1a81b65a9103733495a1cb52ff", "name": "Komo Kenya Madeline Rose", "confidence": 0.24594992636229751, "socials": [ "https://www.facebook.com/102857068571717" ] }, "geometry": { "type": "Point", "coordinates": [ -84.40184, 33.74776 ] } },
{ "type": "Feature", "properties": { "id": "08f44c1a81b654ee03474edff3809a5b", "name": "Atlanta WBL", "confidence": 0.24594992636229751, "socials": [ "https://www.facebook.com/442200759218227" ] }, "geometry": { "type": "Point", "coordinates": [ -84.40179, 33.74781 ] } },
{ "type": "Feature", "properties": { "id": "08f44c1a81b6481d03539cde5f57db81", "name": "The Projects Restaurant and Lounge", "confidence": 0.95890559100248729, "socials": [ "https://www.facebook.com/102550104655917" ] }, "geometry": { "type": "Point", "coordinates": [ -84.4015967, 33.7473533 ] } },
{ "type": "Feature", "properties": { "id": "08f44c1a81b61d13038fa0d9e74e49f1", "name": "The Peach Magnolia - ATL", "confidence": 0.25185185185185177, "socials": [ "https://www.facebook.com/105626544522680" ] }, "geometry": { "type": "Point", "coordinates": [ -84.4016385, 33.7475888 ] } },
{ "type": "Feature", "properties": { "id": "08f44c1a81b6446303007815afada616", "name": "unitOne LLC", "confidence": 0.77, "socials": null }, "geometry": { "type": "Point", "coordinates": [ -84.401245, 33.747421 ] } },
{ "type": "Feature", "properties": { "id": "08f44c1a81b6447503629179e14eacfe", "name": "Peters Street Pop-Up", "confidence": 0.30856423173803527, "socials": [ "https://www.facebook.com/101213482814471" ] }, "geometry": { "type": "Point", "coordinates": [ -84.4012299, 33.7474082 ] } },
{ "type": "Feature", "properties": { "id": "08f44c1a81b6447503cf0bef16f73463", "name": "Wildlifebrandclothing", "confidence": 0.27546777546777546, "socials": [ "https://www.facebook.com/576582799196761" ] }, "geometry": { "type": "Point", "coordinates": [ -84.40123, 33.74741 ] } },
{ "type": "Feature", "properties": { "id": "08f44c1a81b6589303ffb9f4dae1b040", "name": "NanoResearch Inc.", "confidence": 0.77, "socials": null }, "geometry": { "type": "Point", "coordinates": [ -84.4017477, 33.7476112 ] } },
{ "type": "Feature", "properties": { "id": "08f44c1a81b65196032ea706c386268a", "name": "255 Tapas Lounge", "confidence": 0.95675776862598283, "socials": [ "https://www.facebook.com/196533485153" ] }, "geometry": { "type": "Point", "coordinates": [ -84.4016517, 33.7476694 ] } },
{ "type": "Feature", "properties": { "id": "08f44c1a81b6576b03c3703220f7d898", "name": "Midweek Comedy Fix", "confidence": 0.25185185185185177, "socials": [ "https://www.facebook.com/103084808708414" ] }, "geometry": { "type": "Point", "coordinates": [ -84.40173, 33.74786 ] } },
{ "type": "Feature", "properties": { "id": "08f44c1a81b656d50362e392911e24c0", "name": "249 Studio Creative Space", "confidence": 0.57396449704142016, "socials": [ "https://www.facebook.com/167126247336388" ] }, "geometry": { "type": "Point", "coordinates": [ -84.4015965, 33.7479245 ] } },
{ "type": "Feature", "properties": { "id": "08f44c1a81b61d2e0393648299521300", "name": "Melanated Beauty Spa ATL", "confidence": 0.95675776862598283, "socials": [ "https://www.facebook.com/109452298836432" ] }, "geometry": { "type": "Point", "coordinates": [ -84.4015654, 33.7479367 ] } },
{ "type": "Feature", "properties": { "id": "08f44c1a81b608a603fa8c75abe0937f", "name": "Freddyo’s Tees & Quotes", "confidence": 0.95888157894736847, "socials": [ "https://www.facebook.com/416469828426131" ] }, "geometry": { "type": "Point", "coordinates": [ -84.4013278, 33.7477356 ] } },
{ "type": "Feature", "properties": { "id": "08f44c1a81b60c0203c5bf7c3f2f976c", "name": "Makalele", "confidence": 0.24594992636229751, "socials": [ "https://www.facebook.com/330988603431670" ] }, "geometry": { "type": "Point", "coordinates": [ -84.4011507, 33.747683 ] } },
{ "type": "Feature", "properties": { "id": "08f44c1a81b60a850352259c9e0e98c9", "name": "The Glam Bar", "confidence": 0.24594992636229751, "socials": [ "https://www.facebook.com/66379981454" ] }, "geometry": { "type": "Point", "coordinates": [ -84.4013814, 33.7478612 ] } },
{ "type": "Feature", "properties": { "id": "08f44c1aaa793882033a1a293d1fce93", "name": "Snatched & Layed", "confidence": 0.95890559100248729, "socials": [ "https://www.facebook.com/220012234860152" ] }, "geometry": { "type": "Point", "coordinates": [ -84.402351, 33.748348 ] } },
{ "type": "Feature", "properties": { "id": "08f44c1a81b6c9610377c11b8087a962", "name": "Herbin Co. - Luxury Handmade Hats & Accessories", "confidence": 0.92850333651096284, "socials": [ "https://www.facebook.com/109586030485741" ] }, "geometry": { "type": "Point", "coordinates": [ -84.4024626, 33.7484268 ] } },
{ "type": "Feature", "properties": { "id": "08f44c1aaa793401034d4fb45ecd0928", "name": "Wright & James", "confidence": 0.98949369936993703, "socials": [ "https://www.facebook.com/114852571644" ] }, "geometry": { "type": "Point", "coordinates": [ -84.4024103, 33.7484183 ] } },
{ "type": "Feature", "properties": { "id": "08f44c1aaa7932a003f78ebcb216539a", "name": "Chloe Rich Shoes", "confidence": 0.77, "socials": null }, "geometry": { "type": "Point", "coordinates": [ -84.4021501, 33.7484674 ] } },
{ "type": "Feature", "properties": { "id": "08f44c1a81b656d5035302dca340df98", "name": "Parlor", "confidence": 0.95732478704562707, "socials": [ "https://www.facebook.com/345540752604066" ] }, "geometry": { "type": "Point", "coordinates": [ -84.4015775, 33.7479775 ] } },
{ "type": "Feature", "properties": { "id": "08f44c1a81b63b9e03e3dfa6250be7f0", "name": "The Glam Shop", "confidence": 0.95445655210952784, "socials": [ "https://www.facebook.com/296913823700993" ] }, "geometry": { "type": "Point", "coordinates": [ -84.4011378, 33.748157 ] } },
{ "type": "Feature", "properties": { "id": "08f44c1a81b6446203decf5e1e2fcd03", "name": "Swift Co Lofts Fire Alarms", "confidence": 0.4907481898632341, "socials": [ "https://www.facebook.com/785160184851936" ] }, "geometry": { "type": "Point", "coordinates": [ -84.401059, 33.747585 ] } },
{ "type": "Feature", "properties": { "id": "08f44c1a81b62ba103007d5d999af122", "name": "Tiffani Blu Studios", "confidence": 0.30856423173803527, "socials": [ "https://www.facebook.com/2005891052960345" ] }, "geometry": { "type": "Point", "coordinates": [ -84.4009209, 33.7478941 ] } },
{ "type": "Feature", "properties": { "id": "08f44c1a81b6222e03388529ad96afb4", "name": "Kingan & Co Condominiums", "confidence": 0.95374086990853457, "socials": [ "https://www.facebook.com/155504911155171" ] }, "geometry": { "type": "Point", "coordinates": [ -84.40092, 33.7481089 ] } },
{ "type": "Feature", "properties": { "id": "08f44c1a81b448a5039e8154188482c7", "name": "Tattoo Studio Be Ink", "confidence": 0.30856423173803527, "socials": [ "https://www.facebook.com/386578408368053" ] }, "geometry": { "type": "Point", "coordinates": [ -84.4006995, 33.7482241 ] } },
{ "type": "Feature", "properties": { "id": "08f44c1a81b44cab03207eb964ad1ecc", "name": "She Pierced It", "confidence": 0.95890559100248729, "socials": [ "https://www.facebook.com/2178857422367645" ] }, "geometry": { "type": "Point", "coordinates": [ -84.4005069, 33.7482444 ] } },
{ "type": "Feature", "properties": { "id": "08f44c1a81b448d903c2878ab68c6dd6", "name": "Bam Bam ENT INC.", "confidence": 0.25185185185185177, "socials": [ "https://www.facebook.com/140056922765445" ] }, "geometry": { "type": "Point", "coordinates": [ -84.4007263, 33.7483215 ] } },
{ "type": "Feature", "properties": { "id": "08f44c1a81b44c4803202c33dbfc93ab", "name": "Be iinked !!", "confidence": 0.95374086990853457, "socials": [ "https://www.facebook.com/1895827714011075" ] }, "geometry": { "type": "Point", "coordinates": [ -84.4006105, 33.7482949 ] } },
{ "type": "Feature", "properties": { "id": "08f44c1a81b712460332382eaf166749", "name": "TakiiTattoos", "confidence": 0.95675776862598283, "socials": [ "https://www.facebook.com/110767400736344" ] }, "geometry": { "type": "Point", "coordinates": [ -84.4004885, 33.7483436 ] } },
{ "type": "Feature", "properties": { "id": "08f44c1a81b44c58030ac32ceb202dcd", "name": "Kingdom Glam The Beauty Depot", "confidence": 0.98936040007896298, "socials": [ "https://www.facebook.com/521992274522136" ] }, "geometry": { "type": "Point", "coordinates": [ -84.400404, 33.74824 ] } },
{ "type": "Feature", "properties": { "id": "08f44c1a81b712500370202508882ed0", "name": "Synchronartcity", "confidence": 0.77, "socials": null }, "geometry": { "type": "Point", "coordinates": [ -84.4003912, 33.7482433 ] } },
{ "type": "Feature", "properties": { "id": "08f44c1a81b46012035666d5769a7f87", "name": "Smith & Porter Apartments", "confidence": 0.99054828593057209, "socials": [ "https://www.facebook.com/1140095006140651" ] }, "geometry": { "type": "Point", "coordinates": [ -84.40023, 33.748561 ] } },
{ "type": "Feature", "properties": { "id": "08f44c1a81b6dadb03d094683dc935f0", "name": "Kenny T's Apparel, Branding and Marketing", "confidence": 0.95040671739700866, "socials": [ "https://www.facebook.com/269932523114884" ] }, "geometry": { "type": "Point", "coordinates": [ -84.4023816, 33.7488578 ] } },
{ "type": "Feature", "properties": { "id": "08f44c1a81b68b520338726b35846649", "name": "Professional Speech & Language Therapy", "confidence": 0.24594992636229751, "socials": [ "https://www.facebook.com/843839512332262" ] }, "geometry": { "type": "Point", "coordinates": [ -84.40209, 33.74892 ] } },
{ "type": "Feature", "properties": { "id": "08f44c1a81b69ca503fbc8c9822bd6ab", "name": "Bisutomodo Entertainment LLC", "confidence": 0.94568690095846641, "socials": [ "https://www.facebook.com/103281374855728" ] }, "geometry": { "type": "Point", "coordinates": [ -84.4021056, 33.7490824 ] } },
{ "type": "Feature", "properties": { "id": "08f44c1a81b69ca80375f67b3806597a", "name": "Atlanta 211", "confidence": 0.95374086990853457, "socials": [ "https://www.facebook.com/256171947585091" ] }, "geometry": { "type": "Point", "coordinates": [ -84.4021002, 33.7491039 ] } },
{ "type": "Feature", "properties": { "id": "08f44c1a81b69c46037a26eae0044c31", "name": "AMS Enterprise", "confidence": 0.95374086990853457, "socials": [ "https://www.facebook.com/312408882769997" ] }, "geometry": { "type": "Point", "coordinates": [ -84.4020995, 33.7491055 ] } },
{ "type": "Feature", "properties": { "id": "08f44c1a81b6bc850392a843752f0baa", "name": "Covendis", "confidence": 0.95040671739700866, "socials": [ "https://www.facebook.com/190837741049026" ] }, "geometry": { "type": "Point", "coordinates": [ -84.4017013, 33.7493192 ] } },
{ "type": "Feature", "properties": { "id": "08f44c1a81b6b492034578ed3a0e01d4", "name": "Memes Graciosos 22", "confidence": 0.30856423173803527, "socials": [ "https://www.facebook.com/102548525830413" ] }, "geometry": { "type": "Point", "coordinates": [ -84.40145, 33.74935 ] } },
{ "type": "Feature", "properties": { "id": "08f44c1a81b4c02d03a748266d5f3c0c", "name": "Brand New Consulting Group", "confidence": 0.95374086990853457, "socials": [ "https://www.facebook.com/1201193519910248" ] }, "geometry": { "type": "Point", "coordinates": [ -84.40128, 33.74942 ] } },
{ "type": "Feature", "properties": { "id": "08f44c1a81b4caa903c2cab803fda456", "name": "Custo's Shop LLC", "confidence": 0.95890559100248729, "socials": [ "https://www.facebook.com/109314841796053" ] }, "geometry": { "type": "Point", "coordinates": [ -84.4014116, 33.7495002 ] } },
{ "type": "Feature", "properties": { "id": "08f44c1a81b4c38003f654a80089fdd4", "name": "Wasabi Sushi Wine & Ake Lounge", "confidence": 0.45940594059405937, "socials": [ "https://www.facebook.com/121011434577842" ] }, "geometry": { "type": "Point", "coordinates": [ -84.401294, 33.749566 ] } },
{ "type": "Feature", "properties": { "id": "08f44c1a81b4017503fd770298893413", "name": "Squirrel Brand Preserved Goods Co.", "confidence": 0.95732478704562707, "socials": [ "https://www.facebook.com/399748826900574" ] }, "geometry": { "type": "Point", "coordinates": [ -84.4005953, 33.7487649 ] } },
{ "type": "Feature", "properties": { "id": "08f44c1a81b4624c035b07e1e69899e4", "name": "360 Marketing of Atlanta", "confidence": 0.27546777546777546, "socials": [ "https://www.facebook.com/469322229823712" ] }, "geometry": { "type": "Point", "coordinates": [ -84.40031, 33.74869 ] } },
{ "type": "Feature", "properties": { "id": "08f44c1a81b4296803c8a433f9327705", "name": "Smith & Porter", "confidence": 0.77, "socials": null }, "geometry": { "type": "Point", "coordinates": [ -84.4002326, 33.7487651 ] } },
{ "type": "Feature", "properties": { "id": "08f44c1a81b55245033979ed09105cdf", "name": "Swift & Safe Towing Assist.", "confidence": 0.9554838709677419, "socials": [ "https://www.facebook.com/221334811068925" ] }, "geometry": { "type": "Point", "coordinates": [ -84.3998219, 33.7487858 ] } },
{ "type": "Feature", "properties": { "id": "08f44c1a81b4e30b03b7f02dad16bda4", "name": "Motivate TDR", "confidence": 0.25185185185185177, "socials": [ "https://www.facebook.com/100433399589065" ] }, "geometry": { "type": "Point", "coordinates": [ -84.40089, 33.74969 ] } },
{ "type": "Feature", "properties": { "id": "08f44c1a81b4e30b031d00c21b02b567", "name": "Fabian Haider", "confidence": 0.25185185185185177, "socials": [ "https://www.facebook.com/252122544651462" ] }, "geometry": { "type": "Point", "coordinates": [ -84.40089, 33.74969 ] } },
{ "type": "Feature", "properties": { "id": "08f44c1a81b4e30b037a18e943f39a92", "name": "Tom & Jerry", "confidence": 0.27546777546777546, "socials": [ "https://www.facebook.com/115381785002282" ] }, "geometry": { "type": "Point", "coordinates": [ -84.40089, 33.74969 ] } },
{ "type": "Feature", "properties": { "id": "08f44c1a81b4e30b037ef07d04fc57a0", "name": "Castleberry Hill 2nd Friday Art Stroll", "confidence": 0.27546777546777546, "socials": [ "https://www.facebook.com/544783915561951" ] }, "geometry": { "type": "Point", "coordinates": [ -84.40089, 33.74969 ] } },
{ "type": "Feature", "properties": { "id": "08f44c1a81b4e30b03b2f52f2c94d726", "name": "Malees MV", "confidence": 0.45940594059405937, "socials": [ "https://www.facebook.com/112591207140425" ] }, "geometry": { "type": "Point", "coordinates": [ -84.40089, 33.74969 ] } },
{ "type": "Feature", "properties": { "id": "08f44c1a81b4e30b03b70145f262872c", "name": "Zoe Evans", "confidence": 0.24594992636229751, "socials": [ "https://www.facebook.com/178214758710542" ] }, "geometry": { "type": "Point", "coordinates": [ -84.40089, 33.74969 ] } },
{ "type": "Feature", "properties": { "id": "08f44c1a81b4e30b033d3dfdd6c161fc", "name": "Raphael Abreu", "confidence": 0.4907481898632341, "socials": [ "https://www.facebook.com/100211969634097" ] }, "geometry": { "type": "Point", "coordinates": [ -84.40089, 33.74969 ] } },
{ "type": "Feature", "properties": { "id": "08f44c1a81b4e30b03dbac9bdc4d6c6a", "name": "Vonnyvalencia", "confidence": 0.30856423173803527, "socials": [ "https://www.facebook.com/142099806492480" ] }, "geometry": { "type": "Point", "coordinates": [ -84.40089, 33.74969 ] } },
{ "type": "Feature", "properties": { "id": "08f44c1a81b4e30b03b54648717028bd", "name": "VSRLEnjoylife ", "confidence": 0.25185185185185177, "socials": [ "https://www.facebook.com/226294193896334" ] }, "geometry": { "type": "Point", "coordinates": [ -84.40089, 33.74969 ] } },
{ "type": "Feature", "properties": { "id": "08f44c1a81b4e30b035ca1f5c1af2f08", "name": "Armer Luis TV", "confidence": 0.27546777546777546, "socials": [ "https://www.facebook.com/112620795043377" ] }, "geometry": { "type": "Point", "coordinates": [ -84.40089, 33.74969 ] } },
{ "type": "Feature", "properties": { "id": "08f44c1a81b4e30b039bd0207070768d", "name": "Ogsatisfying", "confidence": 0.25185185185185177, "socials": [ "https://www.facebook.com/336005659603256" ] }, "geometry": { "type": "Point", "coordinates": [ -84.40089, 33.74969 ] } },
{ "type": "Feature", "properties": { "id": "08f44c1a81b4e30b0306e8738a59064d", "name": "Physics Experiments", "confidence": 0.26517967781908303, "socials": [ "https://www.facebook.com/160488237136852" ] }, "geometry": { "type": "Point", "coordinates": [ -84.40089, 33.74969 ] } },
{ "type": "Feature", "properties": { "id": "08f44c1a81b4e30b036ab4ba3c702114", "name": "Thresher", "confidence": 0.26517967781908303, "socials": [ "https://www.facebook.com/114022551748461" ] }, "geometry": { "type": "Point", "coordinates": [ -84.40089, 33.74969 ] } },
{ "type": "Feature", "properties": { "id": "08f44c1a81b4e30b031b87db20098e64", "name": "M8K ULTRA", "confidence": 0.30856423173803527, "socials": [ "https://www.facebook.com/109857968702675" ] }, "geometry": { "type": "Point", "coordinates": [ -84.40089, 33.7496907 ] } },
{ "type": "Feature", "properties": { "id": "08f44c1a81b4e356039e9237f4092257", "name": "Mysteryjinie", "confidence": 0.27546777546777546, "socials": [ "https://www.facebook.com/110227178550208" ] }, "geometry": { "type": "Point", "coordinates": [ -84.40089, 33.7496911 ] } },
{ "type": "Feature", "properties": { "id": "08f44c1a81b4e35603d41b214380db17", "name": "Clarke LRSV", "confidence": 0.25185185185185177, "socials": [ "https://www.facebook.com/224353897429538" ] }, "geometry": { "type": "Point", "coordinates": [ -84.40089, 33.7496912 ] } },
{ "type": "Feature", "properties": { "id": "08f44c1a81b4e35603b707d309211345", "name": "Felix Holzer", "confidence": 0.26517967781908303, "socials": [ "https://www.facebook.com/236760616193952" ] }, "geometry": { "type": "Point", "coordinates": [ -84.40089, 33.7496915 ] } },
{ "type": "Feature", "properties": { "id": "08f44c1a81b4852e03f5b31d742412a8", "name": "Bodega Garden", "confidence": 0.98952500698519141, "socials": [ "https://www.facebook.com/821426681287698" ] }, "geometry": { "type": "Point", "coordinates": [ -84.4010803, 33.7498601 ] } },
{ "type": "Feature", "properties": { "id": "08f44c1a81b4857303bd9d23e070e464", "name": "925.MX Silver Jewelry", "confidence": 0.99018470102049427, "socials": [ "https://www.facebook.com/1636427623299898" ] }, "geometry": { "type": "Point", "coordinates": [ -84.4010767, 33.7498833 ] } },
{ "type": "Feature", "properties": { "id": "08f44c1a81b4852e033676113b99a7d7", "name": "No Mas! Hacienda", "confidence": 0.99018470102049427, "socials": [ "https://www.facebook.com/147122478657166" ] }, "geometry": { "type": "Point", "coordinates": [ -84.4009507, 33.7498328 ] } },
{ "type": "Feature", "properties": { "id": "08f44c1a81b4ab6003ffc6bcbb92af55", "name": "Joeel Comedy", "confidence": 0.24594992636229751, "socials": [ "https://www.facebook.com/101071146149068" ] }, "geometry": { "type": "Point", "coordinates": [ -84.40093, 33.74998 ] } },
{ "type": "Feature", "properties": { "id": "08f44c1a81b4e124035dcba4192cf3f2", "name": "No Mas Cantina", "confidence": 0.98936040007896298, "socials": [ "https://www.facebook.com/111623268872700" ] }, "geometry": { "type": "Point", "coordinates": [ -84.400901, 33.749884 ] } },
{ "type": "Feature", "properties": { "id": "08f44c1a81b4842b038756570f29bab6", "name": "ADios Cafe", "confidence": 0.99018470102049427, "socials": [ "https://www.facebook.com/109658942112" ] }, "geometry": { "type": "Point", "coordinates": [ -84.4008218, 33.7498425 ] } },
{ "type": "Feature", "properties": { "id": "08f44c1a81b4a98b036b0ab154fa9f74", "name": "Brian Middleton", "confidence": 0.27546777546777546, "socials": [ "https://www.facebook.com/110709381923192" ] }, "geometry": { "type": "Point", "coordinates": [ -84.4007128, 33.7498385 ] } },
{ "type": "Feature", "properties": { "id": "08f44c1a81b4a98b03c29d35f4f9ff86", "name": "Oppiz", "confidence": 0.26517967781908303, "socials": [ "https://www.facebook.com/108756481971873" ] }, "geometry": { "type": "Point", "coordinates": [ -84.4007128, 33.7498385 ] } },
{ "type": "Feature", "properties": { "id": "08f44c1a81b5913203a06f775a060ed5", "name": "Buoyant Wine Storage", "confidence": 0.92660550458715596, "socials": [ "https://www.facebook.com/288892037987795" ] }, "geometry": { "type": "Point", "coordinates": [ -84.4003301, 33.749921 ] } },
{ "type": "Feature", "properties": { "id": "08f44c1a81b59d9003340f7885303006", "name": "Tripp Whitley", "confidence": 0.25185185185185177, "socials": [ "https://www.facebook.com/104824782395024" ] }, "geometry": { "type": "Point", "coordinates": [ -84.4, 33.7499 ] } },
{ "type": "Feature", "properties": { "id": "08f44c1a81b59d900318901c9c4ee5ef", "name": "Amanta Amulet", "confidence": 0.26517967781908303, "socials": [ "https://www.facebook.com/308216382373420" ] }, "geometry": { "type": "Point", "coordinates": [ -84.4, 33.7499 ] } },
{ "type": "Feature", "properties": { "id": "08f44c1a81b0a35b03aeb03862bafaea", "name": "MVP Studios", "confidence": 0.95732478704562707, "socials": [ "https://www.facebook.com/101834975635240" ] }, "geometry": { "type": "Point", "coordinates": [ -84.398219, 33.7477654 ] } },
{ "type": "Feature", "properties": { "id": "08f44c1a81b0a34003f4cd35199c467f", "name": "Rolling Out", "confidence": 0.27546777546777546, "socials": [ "https://www.facebook.com/126251917429912" ] }, "geometry": { "type": "Point", "coordinates": [ -84.398238, 33.747852 ] } },
{ "type": "Feature", "properties": { "id": "08f44c1a81a2075503f1c59c338605af", "name": "ATL Auto Specialist", "confidence": 0.95374086990853457, "socials": [ "https://www.facebook.com/844127505674850" ] }, "geometry": { "type": "Point", "coordinates": [ -84.3976838, 33.7485918 ] } },
{ "type": "Feature", "properties": { "id": "08f44c1a81a2640103ecdb5c5729d057", "name": "The Magic City Lifestyle", "confidence": 0.95675776862598283, "socials": [ "https://www.facebook.com/100947428438633" ] }, "geometry": { "type": "Point", "coordinates": [ -84.3972865, 33.7482422 ] } },
{ "type": "Feature", "properties": { "id": "08f44c1a81a2645503bd169797d673ea", "name": "Pretty Money ent", "confidence": 0.45940594059405937, "socials": [ "https://www.facebook.com/102392813174797" ] }, "geometry": { "type": "Point", "coordinates": [ -84.3973138, 33.7482765 ] } },
{ "type": "Feature", "properties": { "id": "08f44c1a81a204e50337412da5b9c67d", "name": "U-Haul Neighborhood Dealer", "confidence": 0.77, "socials": null }, "geometry": { "type": "Point", "coordinates": [ -84.397659, 33.748604 ] } },
{ "type": "Feature", "properties": { "id": "08f44c1a81a264ed03c665d520369406", "name": "Own crafts", "confidence": 0.26517967781908303, "socials": [ "https://www.facebook.com/147004781831075" ] }, "geometry": { "type": "Point", "coordinates": [ -84.3973, 33.7482975 ] } },
{ "type": "Feature", "properties": { "id": "08f44c1a81a264ed0307b221440cbe77", "name": "Donna Long", "confidence": 0.27546777546777546, "socials": [ "https://www.facebook.com/135115893017764" ] }, "geometry": { "type": "Point", "coordinates": [ -84.3973, 33.7483 ] } },
{ "type": "Feature", "properties": { "id": "08f44c1a81a264ed03016e56cf8e479e", "name": "PaPa Tips", "confidence": 0.25185185185185177, "socials": [ "https://www.facebook.com/189168790949942" ] }, "geometry": { "type": "Point", "coordinates": [ -84.3973, 33.7483 ] } },
{ "type": "Feature", "properties": { "id": "08f44c1a81a264ed03f42ea6d3327c30", "name": "Lala  Makk", "confidence": 0.30856423173803527, "socials": [ "https://www.facebook.com/103211372114335" ] }, "geometry": { "type": "Point", "coordinates": [ -84.3973, 33.7483 ] } },
{ "type": "Feature", "properties": { "id": "08f44c1a81a264ed035651ea8ae77d69", "name": "Nhuy Hoa Nghe Tay", "confidence": 0.24594992636229751, "socials": [ "https://www.facebook.com/148426448344755" ] }, "geometry": { "type": "Point", "coordinates": [ -84.3973, 33.7483 ] } },
{ "type": "Feature", "properties": { "id": "08f44c1a81a267b40334224eefb57db2", "name": "Magic City Strip Club", "confidence": 0.95732478704562707, "socials": [ "https://www.facebook.com/428270427264890" ] }, "geometry": { "type": "Point", "coordinates": [ -84.3973, 33.7483 ] } },
{ "type": "Feature", "properties": { "id": "08f44c1a81a264ed03fe0a219428e00c", "name": "KoSa Kailey Amia Young", "confidence": 0.26517967781908303, "socials": [ "https://www.facebook.com/107893701543907" ] }, "geometry": { "type": "Point", "coordinates": [ -84.3973, 33.7483 ] } },
{ "type": "Feature", "properties": { "id": "08f44c1a81b510c903bca74c03c810ca", "name": "360 Studios ATL", "confidence": 0.24594992636229751, "socials": [ "https://www.facebook.com/747768625318642" ] }, "geometry": { "type": "Point", "coordinates": [ -84.3995522, 33.7491066 ] } },
{ "type": "Feature", "properties": { "id": "08f44c1a81b5a98c03c4ef24828703d3", "name": "The Pink Zebra Boutique", "confidence": 0.95374086990853457, "socials": [ "https://www.facebook.com/152910324749927" ] }, "geometry": { "type": "Point", "coordinates": [ -84.3992809, 33.7496548 ] } },
{ "type": "Feature", "properties": { "id": "08f44c1a81b5a9a20320bf0e7b545f1b", "name": "Flirty Gurlz Boutique", "confidence": 0.95040671739700866, "socials": [ "https://www.facebook.com/163140533556304" ] }, "geometry": { "type": "Point", "coordinates": [ -84.3993833, 33.7497168 ] } },
{ "type": "Feature", "properties": { "id": "08f44c1a81b5a9a203ba0ef92cde4e89", "name": "Sean Sean Funny Short", "confidence": 0.24594992636229751, "socials": [ "https://www.facebook.com/138280899369382" ] }, "geometry": { "type": "Point", "coordinates": [ -84.39937, 33.74968 ] } },
{ "type": "Feature", "properties": { "id": "08f44c1a81b5a9a203b37e73ab2b89ed", "name": "Ellens", "confidence": 0.24594992636229751, "socials": [ "https://www.facebook.com/107978505192311" ] }, "geometry": { "type": "Point", "coordinates": [ -84.39937, 33.74968 ] } },
{ "type": "Feature", "properties": { "id": "08f44c1a81b5a9a203a751612a18b3e7", "name": "Chef Noi", "confidence": 0.55927835051546393, "socials": [ "https://www.facebook.com/112462228486630" ] }, "geometry": { "type": "Point", "coordinates": [ -84.39937, 33.74968 ] } },
{ "type": "Feature", "properties": { "id": "08f44c1a81b5a9a2032a4f22c68906c8", "name": "Atlanta Houses For Rent", "confidence": 0.4907481898632341, "socials": [ "https://www.facebook.com/1679531562327010" ] }, "geometry": { "type": "Point", "coordinates": [ -84.39937, 33.74968 ] } },
{ "type": "Feature", "properties": { "id": "08f44c1a81b5a9a2038526cd33836dfc", "name": "Carneirinho Chico", "confidence": 0.26517967781908303, "socials": [ "https://www.facebook.com/117560041390423" ] }, "geometry": { "type": "Point", "coordinates": [ -84.39937, 33.74968 ] } },
{ "type": "Feature", "properties": { "id": "08f44c1a81b5a9a203afc17a2e02c344", "name": "Pianowrap", "confidence": 0.92660550458715596, "socials": [ "https://www.facebook.com/349178014945696" ] }, "geometry": { "type": "Point", "coordinates": [ -84.39937, 33.74968 ] } },
{ "type": "Feature", "properties": { "id": "08f44c1a81b5a9a2036c790a7d8a5904", "name": "Best Beauty", "confidence": 0.27546777546777546, "socials": [ "https://www.facebook.com/128601200326222" ] }, "geometry": { "type": "Point", "coordinates": [ -84.39937, 33.74968 ] } },
{ "type": "Feature", "properties": { "id": "08f44c1a81b5a129036e09f662227e5f", "name": "Besharat Gallery", "confidence": 0.95890559100248729, "socials": [ "https://www.facebook.com/116553175092320" ] }, "geometry": { "type": "Point", "coordinates": [ -84.3992499, 33.7497376 ] } },
{ "type": "Feature", "properties": { "id": "08f44c1a81b5252a038ad11dfc70eac8", "name": "201 Spring Street", "confidence": 0.94807692307692304, "socials": [ "https://www.facebook.com/545413415852330" ] }, "geometry": { "type": "Point", "coordinates": [ -84.3983181, 33.7486523 ] } },
{ "type": "Feature", "properties": { "id": "08f44c1a81a204c10325db0519e6f0a1", "name": "Pavel bonder", "confidence": 0.24594992636229751, "socials": [ "https://www.facebook.com/305619155973881" ] }, "geometry": { "type": "Point", "coordinates": [ -84.39764, 33.74863 ] } },
{ "type": "Feature", "properties": { "id": "08f44c1a81a2a5b603941b2a774c2e13", "name": "Bernardh14", "confidence": 0.24594992636229751, "socials": [ "https://www.facebook.com/171296716047520" ] }, "geometry": { "type": "Point", "coordinates": [ -84.3977, 33.7496781 ] } },
{ "type": "Feature", "properties": { "id": "08f44c1a81a00a4203870ef837f826a9", "name": "Atlanta Field Office", "confidence": 0.95675776862598283, "socials": [ "https://www.facebook.com/162639543749487" ] }, "geometry": { "type": "Point", "coordinates": [ -84.397493, 33.7497045 ] } },
{ "type": "Feature", "properties": { "id": "08f44c1a81a01d00036f0df50948e7f0", "name": "DHS Ice", "confidence": 0.25185185185185177, "socials": [ "https://www.facebook.com/102225670654228" ] }, "geometry": { "type": "Point", "coordinates": [ -84.397409, 33.749658 ] } },
{ "type": "Feature", "properties": { "id": "08f44c1a81a01c580355c65501eb9968", "name": "Duo Duo", "confidence": 0.55927835051546393, "socials": [ "https://www.facebook.com/103656205784772" ] }, "geometry": { "type": "Point", "coordinates": [ -84.39743, 33.7497905 ] } },
{ "type": "Feature", "properties": { "id": "08f44c1a81a015a00388ceab24591f3e", "name": "Atlanta Immigration Court", "confidence": 0.95374086990853457, "socials": [ "https://www.facebook.com/137421733003357" ] }, "geometry": { "type": "Point", "coordinates": [ -84.3972925, 33.7496569 ] } },
{ "type": "Feature", "properties": { "id": "08f44c1a81940d0403e97f5f7077fbee", "name": "Golf Tour", "confidence": 0.25185185185185177, "socials": [ "https://www.facebook.com/119106411112530" ] }, "geometry": { "type": "Point", "coordinates": [ -84.3961583, 33.7409849 ] } },
{ "type": "Feature", "properties": { "id": "08f44c1a8195057303a752a61ff7a828", "name": "McGahren Law Firm, LLC", "confidence": 0.95732478704562707, "socials": [ "https://www.facebook.com/118907378130882" ] }, "geometry": { "type": "Point", "coordinates": [ -84.3947562, 33.7408986 ] } },
{ "type": "Feature", "properties": { "id": "08f44c1a81950c5103fe3dc5c14098a9", "name": "Keatley for Georgia", "confidence": 0.4907481898632341, "socials": [ "https://www.facebook.com/1208243249290464" ] }, "geometry": { "type": "Point", "coordinates": [ -84.39483, 33.74099 ] } },
{ "type": "Feature", "properties": { "id": "08f44c1a8195057303f328344f12b8a6", "name": "The Lynch Law Group, Inc.", "confidence": 0.45940594059405937, "socials": [ "https://www.facebook.com/162410950477804" ] }, "geometry": { "type": "Point", "coordinates": [ -84.39483, 33.74099 ] } },
{ "type": "Feature", "properties": { "id": "08f44c1a81950c51038190e4bf806350", "name": "The Diana Lynch", "confidence": 0.30856423173803527, "socials": [ "https://www.facebook.com/109000315302357" ] }, "geometry": { "type": "Point", "coordinates": [ -84.39483, 33.74099 ] } },
{ "type": "Feature", "properties": { "id": "08f44c1a81950c51033ae18ba0196a28", "name": "Literacy 2 Legacy, INC.", "confidence": 0.25185185185185177, "socials": [ "https://www.facebook.com/344922449034142" ] }, "geometry": { "type": "Point", "coordinates": [ -84.39483, 33.741047 ] } },
{ "type": "Feature", "properties": { "id": "08f44c1a81950cc003335106b9103325", "name": "Prioleau & Milfort, LLC", "confidence": 0.55927835051546393, "socials": [ "https://www.facebook.com/151033381605558" ] }, "geometry": { "type": "Point", "coordinates": [ -84.394778, 33.741001 ] } },
{ "type": "Feature", "properties": { "id": "08f44c1a819521ae03d917bf341f823b", "name": "Jaclyn Styles You", "confidence": 0.27546777546777546, "socials": [ "https://www.facebook.com/1251646988219244" ] }, "geometry": { "type": "Point", "coordinates": [ -84.39436, 33.74115 ] } },
{ "type": "Feature", "properties": { "id": "08f44c1a8182080003939622ed3424b8", "name": "Rose McGill", "confidence": 0.24594992636229751, "socials": [ "https://www.facebook.com/387078457812470" ] }, "geometry": { "type": "Point", "coordinates": [ -84.39365, 33.74084 ] } },
{ "type": "Feature", "properties": { "id": "08f44c1a818218750361244f2763d11f", "name": "Dope Pedalers", "confidence": 0.4907481898632341, "socials": [ "https://www.facebook.com/468708133479862" ] }, "geometry": { "type": "Point", "coordinates": [ -84.3940604, 33.7411924 ] } },
{ "type": "Feature", "properties": { "id": "08f44c1a8182187503e33791da61432e", "name": "City Side Lofts Gate Callbox", "confidence": 0.30856423173803527, "socials": [ "https://www.facebook.com/143358032368234" ] }, "geometry": { "type": "Point", "coordinates": [ -84.394065, 33.741214 ] } },
{ "type": "Feature", "properties": { "id": "08f44c1a8182116a032e8cc4cbfe36ae", "name": "Mix|Atlanta", "confidence": 0.55927835051546393, "socials": [ "https://www.facebook.com/287337724619184" ] }, "geometry": { "type": "Point", "coordinates": [ -84.393997, 33.741299 ] } },
{ "type": "Feature", "properties": { "id": "08f44c1a818350200305733b844b0128", "name": "Vitality Safety Group", "confidence": 0.77, "socials": null }, "geometry": { "type": "Point", "coordinates": [ -84.3926966, 33.7407405 ] } },
{ "type": "Feature", "properties": { "id": "08f44c1a8183502003db42e92c0415dd", "name": "1 800 Hurt 911", "confidence": 0.77, "socials": null }, "geometry": { "type": "Point", "coordinates": [ -84.3926966, 33.7407405 ] } },
{ "type": "Feature", "properties": { "id": "08f44c1a818319b103731b9884382a66", "name": "Art Satisfying", "confidence": 0.25185185185185177, "socials": [ "https://www.facebook.com/157652570772321" ] }, "geometry": { "type": "Point", "coordinates": [ -84.39261, 33.74099 ] } },
{ "type": "Feature", "properties": { "id": "08f44c1a818319b1034cf100fe3de76b", "name": "Gerald A. Griggs, LLC", "confidence": 0.77, "socials": null }, "geometry": { "type": "Point", "coordinates": [ -84.39261, 33.74099 ] } },
{ "type": "Feature", "properties": { "id": "08f44c1a818325320396c0ea6f66667f", "name": "East Lake Golf Club", "confidence": 0.602112676056338, "socials": [ "https://www.facebook.com/295364084399400" ] }, "geometry": { "type": "Point", "coordinates": [ -84.3915148, 33.7408697 ] } },
{ "type": "Feature", "properties": { "id": "08f44c1a8183185803acc800ac957105", "name": "9to5 Georgia Chapter", "confidence": 0.95374086990853457, "socials": [ "https://www.facebook.com/362078421372" ] }, "geometry": { "type": "Point", "coordinates": [ -84.3927904, 33.7410994 ] } },
{ "type": "Feature", "properties": { "id": "08f44c1a81831b010380f83bf8664233", "name": "Georgia AFL-CIO", "confidence": 0.95445655210952784, "socials": [ "https://www.facebook.com/742345032528864" ] }, "geometry": { "type": "Point", "coordinates": [ -84.3927809, 33.7411505 ] } },
{ "type": "Feature", "properties": { "id": "08f44c1a81831b0303c3deea5fe54bff", "name": "georgia electricianswanted", "confidence": 0.92133492252681759, "socials": [ "https://www.facebook.com/213071522569780" ] }, "geometry": { "type": "Point", "coordinates": [ -84.3927716, 33.7411554 ] } },
{ "type": "Feature", "properties": { "id": "08f44c1a818318e9032f7fe5b3d9118b", "name": "Nationwide Insurance: Slater Insurance Agency", "confidence": 0.77, "socials": null }, "geometry": { "type": "Point", "coordinates": [ -84.392691, 33.741126 ] } },
{ "type": "Feature", "properties": { "id": "08f44c1a81831a2e0374172217fbf1de", "name": "Bac Local 8 Southeast", "confidence": 0.95732478704562707, "socials": [ "https://www.facebook.com/107410127670855" ] }, "geometry": { "type": "Point", "coordinates": [ -84.3927835, 33.7412052 ] } },
{ "type": "Feature", "properties": { "id": "08f44c1a81831b9803b69600c345a1b9", "name": "Law Offices of Bruce H. Carraway, III LLC", "confidence": 0.95445655210952784, "socials": [ "https://www.facebook.com/2185360081794254" ] }, "geometry": { "type": "Point", "coordinates": [ -84.3927834, 33.7412278 ] } },
{ "type": "Feature", "properties": { "id": "08f44c1a81831bb0034d991a5707328b", "name": "APCU", "confidence": 0.25185185185185177, "socials": [ "https://www.facebook.com/174246813242776" ] }, "geometry": { "type": "Point", "coordinates": [ -84.392706, 33.741162 ] } },
{ "type": "Feature", "properties": { "id": "08f44c1a81831a8a03539a0a5a077539", "name": "Georgia Coalition for the Peoples' Agenda", "confidence": 0.95732478704562707, "socials": [ "https://www.facebook.com/595478844204754" ] }, "geometry": { "type": "Point", "coordinates": [ -84.3927408, 33.741229 ] } },
{ "type": "Feature", "properties": { "id": "08f44c1a81831858035128545a4dd5a7", "name": "Atlanta-North Georgia Labor Council", "confidence": 0.9554838709677419, "socials": [ "https://www.facebook.com/148493345172966" ] }, "geometry": { "type": "Point", "coordinates": [ -84.392653, 33.741115 ] } },
{ "type": "Feature", "properties": { "id": "08f44c1a81831a8a035c2e94141defa7", "name": "Slater Insurance Agency-Nationwide Insurance", "confidence": 0.95890559100248729, "socials": [ "https://www.facebook.com/247551618622381" ] }, "geometry": { "type": "Point", "coordinates": [ -84.392742, 33.741261 ] } },
{ "type": "Feature", "properties": { "id": "08f44c1a81948c8103c69bb23a9ff2aa", "name": "Juug Runner ATL", "confidence": 0.25185185185185177, "socials": [ "https://www.facebook.com/113367981558628" ] }, "geometry": { "type": "Point", "coordinates": [ -84.39669, 33.74216 ] } },
{ "type": "Feature", "properties": { "id": "08f44c1a81959a1d036f4da50fe4fee0", "name": "Steph & Lachie", "confidence": 0.26517967781908303, "socials": [ "https://www.facebook.com/173953459141302" ] }, "geometry": { "type": "Point", "coordinates": [ -84.39605, 33.74254 ] } },
{ "type": "Feature", "properties": { "id": "08f44c1a8195bb520389b3280fa48948", "name": "Swanky Spa Parlor x Xen Aesthetics", "confidence": 0.27546777546777546, "socials": [ "https://www.facebook.com/115117078282165" ] }, "geometry": { "type": "Point", "coordinates": [ -84.3955994, 33.7426128 ] } },
{ "type": "Feature", "properties": { "id": "08f44c1a819585120388f0240bab531e", "name": "Incredible Knowledge", "confidence": 0.25185185185185177, "socials": [ "https://www.facebook.com/132071853326536" ] }, "geometry": { "type": "Point", "coordinates": [ -84.39529, 33.7421 ] } },
{ "type": "Feature", "properties": { "id": "08f44c1a8182c3510352b562e693c1bd", "name": "Sheltering Arms Early Learning Center", "confidence": 0.25185185185185177, "socials": [ "https://www.facebook.com/118738188222343" ] }, "geometry": { "type": "Point", "coordinates": [ -84.39441, 33.74178 ] } },
{ "type": "Feature", "properties": { "id": "08f44c1a81876d960362edbf4f4b20f2", "name": "Portland Faux Painting", "confidence": 0.27546777546777546, "socials": [ "https://www.facebook.com/332602463476184" ] }, "geometry": { "type": "Point", "coordinates": [ -84.3942261, 33.7426128 ] } },
{ "type": "Feature", "properties": { "id": "08f44c1a8187675503256681cb007488", "name": "Or’s Barber", "confidence": 0.25185185185185177, "socials": [ "https://www.facebook.com/183135334884778" ] }, "geometry": { "type": "Point", "coordinates": [ -84.39435, 33.74294 ] } },
{ "type": "Feature", "properties": { "id": "08f44c1a8187662a031e7c88d33ea878", "name": "Ashlie Pwdce", "confidence": 0.24594992636229751, "socials": [ "https://www.facebook.com/122096925140016536" ] }, "geometry": { "type": "Point", "coordinates": [ -84.3943119, 33.7429696 ] } },
{ "type": "Feature", "properties": { "id": "08f44c1a81873a4303d7e5116aef3bd2", "name": "Atlanta CASA", "confidence": 0.95374086990853457, "socials": [ "https://www.facebook.com/67215245338" ] }, "geometry": { "type": "Point", "coordinates": [ -84.3942977, 33.7429632 ] } },
{ "type": "Feature", "properties": { "id": "08f44c1a818626e3033434cf106eb747", "name": "Gordon  Velazquez", "confidence": 0.26517967781908303, "socials": [ "https://www.facebook.com/167978473063437" ] }, "geometry": { "type": "Point", "coordinates": [ -84.39551, 33.74356 ] } },
{ "type": "Feature", "properties": { "id": "08f44c1a81871a2303944007a2b04c8f", "name": "Mechanicsville Library", "confidence": 0.95374086990853457, "socials": [ "https://www.facebook.com/1735352236712224" ] }, "geometry": { "type": "Point", "coordinates": [ -84.3954152, 33.7434954 ] } },
{ "type": "Feature", "properties": { "id": "08f44c1a81873b640349dce0759e6bea", "name": "Fulton County Sheriff-Juvenile", "confidence": 0.95732478704562707, "socials": [ "https://www.facebook.com/107527041561336" ] }, "geometry": { "type": "Point", "coordinates": [ -84.3949495, 33.7435359 ] } },
{ "type": "Feature", "properties": { "id": "08f44c1a8184644b0380da59fe3828cd", "name": "Yes Atlanta Inc", "confidence": 0.95732478704562707, "socials": [ "https://www.facebook.com/153929514661817" ] }, "geometry": { "type": "Point", "coordinates": [ -84.3949422, 33.7435358 ] } },
{ "type": "Feature", "properties": { "id": "08f44c1a8184682203d7890f0404bfb6", "name": "Aaronalterman", "confidence": 0.25185185185185177, "socials": [ "https://www.facebook.com/166340089892520" ] }, "geometry": { "type": "Point", "coordinates": [ -84.3951247, 33.7437547 ] } },
{ "type": "Feature", "properties": { "id": "08f44c1a818716e00343a1dff19528e4", "name": "Truancy Intervention Project Georgia, Inc.", "confidence": 0.95890559100248729, "socials": [ "https://www.facebook.com/195772081850" ] }, "geometry": { "type": "Point", "coordinates": [ -84.3950297, 33.7436597 ] } },
{ "type": "Feature", "properties": { "id": "08f44c1a81872a340373798a47a620e5", "name": "Food Life Time", "confidence": 0.25185185185185177, "socials": [ "https://www.facebook.com/116053534715707" ] }, "geometry": { "type": "Point", "coordinates": [ -84.3944648, 33.7432468 ] } },
{ "type": "Feature", "properties": { "id": "08f44c1a8184644b03ab052b013647db", "name": "Youth-Spark", "confidence": 0.95732478704562707, "socials": [ "https://www.facebook.com/229407333781275" ] }, "geometry": { "type": "Point", "coordinates": [ -84.3946969, 33.7435894 ] } },
{ "type": "Feature", "properties": { "id": "08f44c1a818464f503d0bfb9e0107216", "name": "Honda Key Made Atlanta GA", "confidence": 0.77, "socials": null }, "geometry": { "type": "Point", "coordinates": [ -84.39481, 33.74393 ] } },
{ "type": "Feature", "properties": { "id": "08f44c1a818464da03c50015dd269e2b", "name": "A Future. Not A Past.", "confidence": 0.27546777546777546, "socials": [ "https://www.facebook.com/109028819876" ] }, "geometry": { "type": "Point", "coordinates": [ -84.39478, 33.74398 ] } },
{ "type": "Feature", "properties": { "id": "08f44c1a818464da035f8ba1a3d19283", "name": "ฉลามนิ่งเลย", "confidence": 0.26517967781908303, "socials": [ "https://www.facebook.com/106630421648337" ] }, "geometry": { "type": "Point", "coordinates": [ -84.39478, 33.74398 ] } },
{ "type": "Feature", "properties": { "id": "08f44c1a81855c5103e21555c852cf5f", "name": "Snatchedbyslimb", "confidence": 0.27546777546777546, "socials": [ "https://www.facebook.com/288321507880940" ] }, "geometry": { "type": "Point", "coordinates": [ -84.39447, 33.74391 ] } },
{ "type": "Feature", "properties": { "id": "08f44c1a818518a503a5cc1dba58a90f", "name": "Premium Auto Source", "confidence": 0.25185185185185177, "socials": [ "https://www.facebook.com/398902407615970" ] }, "geometry": { "type": "Point", "coordinates": [ -84.39447, 33.7443 ] } },
{ "type": "Feature", "properties": { "id": "08f44c1a81851d480391623c505dcc13", "name": "Tigers Apparel", "confidence": 0.25185185185185177, "socials": [ "https://www.facebook.com/2708529235887771" ] }, "geometry": { "type": "Point", "coordinates": [ -84.3944, 33.7443 ] } },
{ "type": "Feature", "properties": { "id": "08f44c1a81851d480300f4c1025b9268", "name": "K&M Be Happy Women", "confidence": 0.26517967781908303, "socials": [ "https://www.facebook.com/198064166724052" ] }, "geometry": { "type": "Point", "coordinates": [ -84.3944, 33.7443 ] } },
{ "type": "Feature", "properties": { "id": "08f44c1a81851d4803288ecd4dd8e075", "name": "Mommie Gift Box", "confidence": 0.25185185185185177, "socials": [ "https://www.facebook.com/106225840989738" ] }, "geometry": { "type": "Point", "coordinates": [ -84.3944, 33.7443 ] } },
{ "type": "Feature", "properties": { "id": "08f44c1a81851d4803c4f323ffd6243c", "name": "Gold and Rough Diamond", "confidence": 0.30856423173803527, "socials": [ "https://www.facebook.com/1793372400973761" ] }, "geometry": { "type": "Point", "coordinates": [ -84.3944, 33.7443 ] } },
{ "type": "Feature", "properties": { "id": "08f44c1a81851c0c03312c7dadb2cb8d", "name": "Sharper Cruver Company Band", "confidence": 0.30856423173803527, "socials": [ "https://www.facebook.com/106867460907421" ] }, "geometry": { "type": "Point", "coordinates": [ -84.3943351, 33.7443041 ] } },
{ "type": "Feature", "properties": { "id": "08f44c1a81851c0c039daa7e42c6769c", "name": "MemberSpot", "confidence": 0.27546777546777546, "socials": [ "https://www.facebook.com/619461678700796" ] }, "geometry": { "type": "Point", "coordinates": [ -84.3943351, 33.7443041 ] } },
{ "type": "Feature", "properties": { "id": "08f44c1a81851c010393c1e3cabfd4d5", "name": "Boris Larson", "confidence": 0.25185185185185177, "socials": [ "https://www.facebook.com/155305490991736" ] }, "geometry": { "type": "Point", "coordinates": [ -84.39433, 33.7443 ] } },
{ "type": "Feature", "properties": { "id": "08f44c1a81851c010397407c02034e98", "name": "Olivia Torres", "confidence": 0.26517967781908303, "socials": [ "https://www.facebook.com/199518356589134" ] }, "geometry": { "type": "Point", "coordinates": [ -84.39433, 33.7443 ] } },
{ "type": "Feature", "properties": { "id": "08f44c1a81851c010384a07e7bac90fd", "name": "Gardening and Bonsai", "confidence": 0.24594992636229751, "socials": [ "https://www.facebook.com/110004622036858" ] }, "geometry": { "type": "Point", "coordinates": [ -84.39433, 33.7443 ] } },
{ "type": "Feature", "properties": { "id": "08f44c1a81851c0103f9a0e9971b7b0e", "name": "Mindset Bracelets", "confidence": 0.27546777546777546, "socials": [ "https://www.facebook.com/105296072266136" ] }, "geometry": { "type": "Point", "coordinates": [ -84.39433, 33.7443 ] } },
{ "type": "Feature", "properties": { "id": "08f44c1a81851c01032334d88e736c06", "name": "Shalanda Miller for Fulton Superior Court Judge", "confidence": 0.45940594059405937, "socials": [ "https://www.facebook.com/104391922120218" ] }, "geometry": { "type": "Point", "coordinates": [ -84.39433, 33.7443 ] } },
{ "type": "Feature", "properties": { "id": "08f44c1a81805101038a4c82e03eb061", "name": "Alps", "confidence": 0.26517967781908303, "socials": [ "https://www.facebook.com/110751088424546" ] }, "geometry": { "type": "Point", "coordinates": [ -84.3933301, 33.741788 ] } },
{ "type": "Feature", "properties": { "id": "08f44c1a818053ae039fe6cf171a50b6", "name": "KH-Videos168", "confidence": 0.55927835051546393, "socials": [ "https://www.facebook.com/104042225773314" ] }, "geometry": { "type": "Point", "coordinates": [ -84.393353, 33.7419504 ] } },
{ "type": "Feature", "properties": { "id": "08f44c1a818055aa03d84723b63063ff", "name": "Ricegrains Handicraft", "confidence": 0.25185185185185177, "socials": [ "https://www.facebook.com/117769321279237" ] }, "geometry": { "type": "Point", "coordinates": [ -84.39307, 33.74179 ] } },
{ "type": "Feature", "properties": { "id": "08f44c1a818055aa039ee3280e49ee0d", "name": "beautifulview", "confidence": 0.30856423173803527, "socials": [ "https://www.facebook.com/276712665516700" ] }, "geometry": { "type": "Point", "coordinates": [ -84.39307, 33.74179 ] } },
{ "type": "Feature", "properties": { "id": "08f44c1a818055aa033c566b5174719d", "name": "Victoria Leah", "confidence": 0.26517967781908303, "socials": [ "https://www.facebook.com/122093685464017148" ] }, "geometry": { "type": "Point", "coordinates": [ -84.39307, 33.74179 ] } },
{ "type": "Feature", "properties": { "id": "08f44c1a8180346a03c4f3f4d94a7239", "name": "Griggs Gerald A", "confidence": 0.77, "socials": null }, "geometry": { "type": "Point", "coordinates": [ -84.392566, 33.742417 ] } },
{ "type": "Feature", "properties": { "id": "08f44c1a81856ba90379747a7ccbd2c3", "name": "Thetruefeelz", "confidence": 0.26517967781908303, "socials": [ "https://www.facebook.com/112032658669982" ] }, "geometry": { "type": "Point", "coordinates": [ -84.39385, 33.7437711 ] } },
{ "type": "Feature", "properties": { "id": "08f44c1a81856a0003e2e7e12053136d", "name": "Bio Hazard Plus Crime Scene Cleanup - Atlanta GA", "confidence": 0.4907481898632341, "socials": [ "https://www.facebook.com/133125884074763" ] }, "geometry": { "type": "Point", "coordinates": [ -84.393866, 33.743812 ] } },
{ "type": "Feature", "properties": { "id": "08f44c1a8180aa6c039cafa0694142f1", "name": "Quincieandzach", "confidence": 0.25185185185185177, "socials": [ "https://www.facebook.com/130512393469133" ] }, "geometry": { "type": "Point", "coordinates": [ -84.39321, 33.7432 ] } },
{ "type": "Feature", "properties": { "id": "08f44c1a8185624e03c011728eef898f", "name": "United States Postal Service", "confidence": 0.98936040007896298, "socials": [ "https://www.facebook.com/103854996347225" ] }, "geometry": { "type": "Point", "coordinates": [ -84.3940833, 33.74389 ] } },
{ "type": "Feature", "properties": { "id": "08f44c1a8185665303720af01a61e7fd", "name": "Taking Care of People Intl", "confidence": 0.30856423173803527, "socials": [ "https://www.facebook.com/1471541416475478" ] }, "geometry": { "type": "Point", "coordinates": [ -84.3935917, 33.7439833 ] } },
{ "type": "Feature", "properties": { "id": "08f44c1a81856aec03955b7534eb6e4b", "name": "The Sid Center", "confidence": 0.95732478704562707, "socials": [ "https://www.facebook.com/2080283372040996" ] }, "geometry": { "type": "Point", "coordinates": [ -84.3937894, 33.7441084 ] } },
{ "type": "Feature", "properties": { "id": "08f44c1a818e5ba903c0e3dd9e410eee", "name": "Ball9 PooL", "confidence": 0.26517967781908303, "socials": [ "https://www.facebook.com/235668106300880" ] }, "geometry": { "type": "Point", "coordinates": [ -84.39336, 33.7438811 ] } },
{ "type": "Feature", "properties": { "id": "08f44c1a818e177003868b6dfc5fb59d", "name": "Credit Asia", "confidence": 0.91400304414003042, "socials": [ "https://www.facebook.com/843445349026706" ] }, "geometry": { "type": "Point", "coordinates": [ -84.3930244, 33.7444372 ] } },
{ "type": "Feature", "properties": { "id": "08f44c1a8181b9280398b6ff9d49e669", "name": "Thatgolfgrind", "confidence": 0.26517967781908303, "socials": [ "https://www.facebook.com/154836087712867" ] }, "geometry": { "type": "Point", "coordinates": [ -84.39211, 33.7431581 ] } },
{ "type": "Feature", "properties": { "id": "08f44c1a818f082e031b8608831dee24", "name": "Loner", "confidence": 0.26517967781908303, "socials": [ "https://www.facebook.com/291254177875383" ] }, "geometry": { "type": "Point", "coordinates": [ -84.3914795, 33.7437547 ] } },
{ "type": "Feature", "properties": { "id": "08f44c1a818e264a03be3d93248610f3", "name": "Absoloot Music Group", "confidence": 0.25185185185185177, "socials": [ "https://www.facebook.com/101590322520066" ] }, "geometry": { "type": "Point", "coordinates": [ -84.3921661, 33.7443257 ] } },
{ "type": "Feature", "properties": { "id": "08f44c1a818f1ae303cef95024bca9c6", "name": "Eatafoods", "confidence": 0.24594992636229751, "socials": [ "https://www.facebook.com/352545931284957" ] }, "geometry": { "type": "Point", "coordinates": [ -84.391914, 33.7442881 ] } },
{ "type": "Feature", "properties": { "id": "08f44c1a818a4044032e096e4009ba04", "name": "Nan Ma", "confidence": 0.25185185185185177, "socials": [ "https://www.facebook.com/103438531916336" ] }, "geometry": { "type": "Point", "coordinates": [ -84.39031, 33.7413281 ] } },
{ "type": "Feature", "properties": { "id": "08f44c1a819984dc035c24b60a23c816", "name": "Turner Field Blue Lot", "confidence": 0.55927835051546393, "socials": [ "https://www.facebook.com/106094456140787" ] }, "geometry": { "type": "Point", "coordinates": [ -84.389256, 33.740869 ] } },
{ "type": "Feature", "properties": { "id": "08f44c1a8199b5ad03836edeeec2cace", "name": "Sumn’ Sweet", "confidence": 0.27546777546777546, "socials": [ "https://www.facebook.com/102012965255096" ] }, "geometry": { "type": "Point", "coordinates": [ -84.3891898, 33.7410104 ] } },
{ "type": "Feature", "properties": { "id": "08f44c1a818a0cc6039fe48c91b24364", "name": "Chef Kelly Scott", "confidence": 0.24594992636229751, "socials": [ "https://www.facebook.com/114806924937855" ] }, "geometry": { "type": "Point", "coordinates": [ -84.3900204, 33.741626 ] } },
{ "type": "Feature", "properties": { "id": "08f44c1a818a048d032ebe8c08662993", "name": "Delishaas Hayden", "confidence": 0.26517967781908303, "socials": [ "https://www.facebook.com/104573809300931" ] }, "geometry": { "type": "Point", "coordinates": [ -84.3898916, 33.741742 ] } },
{ "type": "Feature", "properties": { "id": "08f44c1a81d682ab03225182d14d6d18", "name": "Atlanta South Towing & Recovery LLC", "confidence": 0.91193181818181823, "socials": [ "https://www.facebook.com/105437308891297" ] }, "geometry": { "type": "Point", "coordinates": [ -84.3882179, 33.7407036 ] } },
{ "type": "Feature", "properties": { "id": "08f44c1a81d6b11303aef2002d351c3b", "name": "D'Andre Ford Photography", "confidence": 0.25185185185185177, "socials": [ "https://www.facebook.com/100702509207862" ] }, "geometry": { "type": "Point", "coordinates": [ -84.3880463, 33.7408998 ] } },
{ "type": "Feature", "properties": { "id": "08f44c1a81d4d5760313d5722649e233", "name": "1996 Olympic Games Cauldron", "confidence": 0.30856423173803527, "socials": [ "https://www.facebook.com/226414964068530" ] }, "geometry": { "type": "Point", "coordinates": [ -84.388127, 33.741637 ] } },
{ "type": "Feature", "properties": { "id": "08f44c1a81d4936c03fe0bfa0d0ade18", "name": "Atlanta Olympic Cauldron Tower", "confidence": 0.95374086990853457, "socials": [ "https://www.facebook.com/187095048048144" ] }, "geometry": { "type": "Point", "coordinates": [ -84.3880897, 33.7416466 ] } },
{ "type": "Feature", "properties": { "id": "08f44c1a81d4188203e0470d88f8bdd6", "name": "Day Juice", "confidence": 0.25185185185185177, "socials": [ "https://www.facebook.com/198283040036797" ] },